     2.11           OBSERVATION DATA    G (GPS)             RINEX VERSION / TYPE
teqc  2019Feb12                         20211215 00:27:56UTCPGM / RUN BY / DATE
ZIMM                                                        MARKER NAME
14001M004                                                   MARKER NUMBER
TRIMBLE NETR9       SWISSTOPO                               OBSERVER / AGENCY
5429R49141          TRIMBLE NETR9       5.45                REC # / TYPE / VERS
99390               TRM29659.00     NONE                    ANT # / TYPE
  4331297.3480   567555.6390  4633133.7280                  APPROX POSITION XYZ
        0.0000        0.0000        0.0000                  ANTENNA: DELTA H/E/N
     1     1                                                WAVELENGTH FACT L1/2
    10    C1    L1    S1    C2    L2    S2    P2    C5    L5# / TYPES OF OBSERV
          S5                                                # / TYPES OF OBSERV
    30.0000                                                 INTERVAL
Linux 2.4.21-27.ELsmp|Opteron|gcc -static|Linux 64|=+       COMMENT
     2.11           OBSERVATION DATA    M (MIXED)           COMMENT
NetR9 5.45          Receiver Operator   20211214 000000 UTC COMMENT
L2C CARRIER PHASE MEASUREMENTS: PHASE SHIFTS REMOVED        COMMENT
L2C PHASE MATCHES L2 P PHASE                                COMMENT
GLONASS C/A & P PHASE MATCH: PHASE SHIFTS REMOVED           COMMENT
Forced Modulo Decimation to 30 seconds                      COMMENT
teqc edited: all GLONASS satellites excluded                COMMENT
teqc edited: all Galileo satellites excluded                COMMENT
  2021    12    14     0     0    0.0000000     GPS         TIME OF FIRST OBS
                                                            END OF HEADER
 21 12 14  0  0  0.0000000  0 10G16G21G15G08G26G18G23G07G10G27
  20935171.703 9 110015093.338 9        49.900                    85726035.56649
        43.300    20935174.70349
  24144903.773 5 126882325.277 5        36.300                    98869358.86045
        19.300    24144908.31645
  24551326.016 5 129018143.529 5        35.500    24551329.715 3 100533585.40747
        26.800    24551328.84047
  22272903.328 8 117044903.415 8        45.400    22272910.445 8  91203868.91349
        35.300    22272909.16049  22272906.145 5  87403657.473 5        37.100
  22883876.688 7 120255574.042 7        43.500    22883883.680 7  93705675.97049
        42.200    22883883.36349  22883879.629 4  89801257.816 4        34.400
  22833515.320 7 119990946.373 7        42.200    22833520.102 7  93499466.06948
        31.500    22833520.04348  22833520.945 5  89603616.108 5        35.100
  21365018.117 9 112273944.682 9        48.500    21365022.762 9  87486206.85549
        39.900    21365022.00049  21365023.465 6  83840953.116 6        39.900
  24649196.852 6 129532392.533 6        38.700    24649201.695 5 100934334.04146
        23.000    24649201.16446
  21541755.219 9 113202688.699 9        52.200    21541761.961 9  88209924.86749
        55.100    21541761.87149  21541757.227 6  84534432.533 6        40.200
  20452768.516 9 107480084.418 9        52.300    20452774.699 9  83750728.66549
        54.900    20452774.27049  20452771.270 7  80261044.102 7        42.400
 21 12 14  0  0 30.0000000  0 10G16G21G15G08G26G18G23G07G10G27
  20944515.563 9 110064197.424 9        50.100                    85764298.48349
        43.000    20944519.01649
  24128278.313 5 126794960.117 5        36.900                    98801282.14446
        20.600    24128283.52046
  24551221.500 5 129017598.420 5        36.700    24551224.012 2 100533160.66447
        27.600    24551224.21947
  22257919.563 8 116966163.503 8        46.200    22257926.441 8  91142513.14149
        35.500    22257925.41849  22257922.832 5  87344858.188 5        37.900
  22903350.359 7 120357910.731 7        42.900    22903357.680 7  93785418.83349
        42.300    22903357.34049  22903353.867 5  89877678.018 5        35.300
  22850684.609 7 120081167.832 7        43.200    22850688.590 7  93569768.48948
        30.000    22850688.05548  22850689.926 5  89670989.265 5        35.600
  21367729.711 9 112288196.701 9        48.300    21367734.879 9  87497312.33049
        40.400    21367734.12949  21367735.668 6  83851595.873 6        39.500
  24647517.445 6 129523565.995 6        38.700    24647521.328 6 100927456.16046
        22.800    24647521.19546
  21531345.031 9 113147981.827 9        52.500    21531351.348 9  88167296.14649
        55.100    21531351.38349  21531347.008 6  84493580.005 6        39.800
  20446771.984 9 107448572.817 9        52.600    20446778.242 9  83726174.17549
        55.000    20446777.75449  20446774.898 7  80237512.681 7        42.600
 21 12 14  0  1  0.0000000  0 10G16G21G15G08G26G18G23G07G10G27
  20953962.867 9 110113840.259 9        50.000                    85802981.20149
        43.100    20953965.66849
  24111687.773 5 126707773.897 5        37.500                    98733344.86245
        19.600    24111692.08245
  24551227.273 5 129017631.979 5        37.100    24551231.430 2 100533186.78547
        25.300    24551231.20347
  22242971.203 8 116887611.055 8        46.400    22242978.547 8  91081303.45149
        35.500    22242977.44149  22242974.621 6  87286198.911 6        38.100
  22922864.984 7 120460462.015 7        42.300    22922872.832 7  93865328.92249
        42.000    22922872.12549  22922868.633 5  89954258.503 5        35.300
  22867879.055 7 120171529.198 7        42.900    22867883.813 7  93640179.93848
        30.300    22867883.02748  22867884.996 5  89738466.908 5        35.100
  21370557.336 9 112303055.306 9        48.500    21370562.277 9  87508890.48049
        39.900    21370561.91849  21370563.313 6  83862691.580 6        40.000
  24645935.656 6 129515254.462 6        40.600    24645940.418 6 100920979.66146
        24.100    24645939.97746
  21521029.508 9 113093773.762 9        51.800    21521036.078 9  88125056.11249
        55.700    21521035.98449  21521031.930 6  84453099.958 6        40.000
  20440846.109 9 107417432.293 9        52.800    20440852.563 9  83701908.83249
        55.500    20440851.91049  20440849.160 7  80214258.397 7        42.800
 21 12 14  0  1 30.0000000  0 10G16G21G15G08G26G18G23G07G10G27
  20963511.445 9 110164020.284 9        49.300                    85842082.50849
        42.700    20963514.79749
  24095130.625 5 126620767.197 5        36.900                    98665547.43846
        20.400    24095134.89146
  24551344.086 5 129018244.687 5        37.100    24551347.645 3 100533664.17947
        26.000    24551347.89147
  22228059.117 8 116809246.898 8        46.300    22228066.039 8  91020240.46949
        35.900    22228064.96149  22228062.176 5  87227680.221 5        37.600
  22942420.875 7 120563225.261 7        43.200    22942428.305 7  93945404.16949
        42.300    22942427.45349  22942423.801 4  90030997.266 4        34.900
  22885101.055 7 120262028.577 7        43.000    22885105.441 7  93710698.91748
        31.400    22885104.85948  22885106.918 5  89806047.566 5        35.200
  21373500.211 9 112318519.541 9        48.900    21373504.918 9  87520940.53649
        39.900    21373504.44549  21373505.695 6  83874239.559 6        39.900
  24644451.922 6 129507458.033 6        39.000    24644456.453 5 100914904.50646
        22.600    24644456.13346
  21510809.227 9 113040066.014 9        52.100    21510815.715 9  88083205.93149
        55.100    21510815.64849  21510811.344 6  84412993.567 6        39.800
  20434991.164 9 107386663.607 9        52.000    20434997.512 9  83677933.22849
        54.900    20434996.82049  20434993.969 7  80191281.797 7        42.800
 21 12 14  0  2  0.0000000  0 10G16G21G15G08G26G18G23G07G10G27
  20973162.453 9 110214736.269 9        49.400                    85881601.44849
        43.000    20973165.53949
  24078608.266 6 126533940.728 6        38.200                    98597890.52045
        19.900    24078611.96145
  24551571.055 5 129019436.824 5        36.000    24551574.617 4 100534593.12147
        27.500    24551574.08647
  22213183.117 8 116731072.763 8        46.700    22213190.133 8  90959325.56449
        35.800    22213188.94149  22213185.785 5  87169303.452 5        37.400
  22962015.281 7 120666198.163 7        42.700    22962023.023 7  94025642.77449
        42.400    22962022.81649  22962018.766 4  90107892.600 4        34.300
  22902348.383 7 120352664.554 7        42.600    22902353.004 8  93781324.33648
        30.800    22902352.67248  22902353.984 5  89873730.242 5        35.000
  21376558.016 9 112334588.834 9        48.200    21376562.895 9  87533462.07249
        40.100    21376562.18049  21376563.582 6  83886239.396 6        40.200
  24643067.469 7 129500176.387 7        41.000    24643070.594 5 100909230.49446
        23.200    24643070.39546
  21500684.602 9 112986860.444 9        52.000    21500690.906 9  88041747.06049
        55.100    21500690.93849  21500686.570 6  84373262.141 6        40.500
  20429206.883 9 107356267.982 9        53.300    20429213.352 9  83654248.32949
        55.000    20429212.52049  20429209.809 7  80168583.755 7        42.600
 21 12 14  0  2 30.0000000  0 10G16G21G15G08G26G18G23G07G10G27
  20982915.016 9 110265986.591 9        49.900                    85921536.75349
        42.600    20982918.25849
  24062119.563 5 126447294.977 5        36.500                    98530374.45745
        19.900    24062124.70345
  24551908.922 5 129021208.926 5        36.100    24551912.434 5 100535973.99847
        29.100    24551911.54347
  22198343.508 8 116653089.622 8        46.800    22198350.387 8  90898559.47249
        36.000    22198349.13349  22198346.465 6  87111069.256 6        38.100
  22981649.992 7 120769377.977 7        43.200    22981657.492 7  94106042.61949
        42.000    22981657.18049  22981653.113 4  90184942.469 4        34.800
  22919621.195 7 120443435.194 7        42.600    22919625.813 7  93852054.66747
        29.600    22919625.42647  22919627.012 4  89941513.495 4        34.800
  21379731.133 9 112351262.203 9        49.200    21379735.855 9  87546454.31149
        40.400    21379735.21149  21379736.188 6  83898690.299 6        40.400
  24641779.016 6 129493409.377 6        40.400    24641783.313 5 100903957.47246
        23.500    24641782.46546
  21490655.414 9 112934158.453 9        52.000    21490661.930 9  88000680.58249
        55.200    21490661.91449  21490657.586 6  84333906.752 6        40.100
  20423494.195 9 107326246.121 9        52.800    20423500.254 9  83630854.67249
        55.100    20423499.69949  20423496.863 7  80146164.850 7        43.000
 21 12 14  0  3  0.0000000  0 10G16G21G15G08G26G18G23G07G10G27
  20992769.164 9 110317769.960 9        50.200                    85961887.42749
        43.000    20992772.27349
  24045665.617 5 126360830.688 5        37.300                    98462999.66946
        21.100    24045670.51646
  24552355.820 4 129023561.368 4        34.000    24552359.613 5 100537807.11447
        27.200    24552359.15247
  22183540.609 8 116575299.322 8        46.000    22183547.586 8  90837943.66149
        36.500    22183546.50449  22183543.941 6  87052979.140 6        38.500
  23001323.828 7 120872762.459 7        43.700    23001330.605 7  94186601.94749
        41.200    23001330.12949  23001326.465 5  90262145.151 5        35.000
  22936920.250 7 120534339.103 7        43.200    22936924.289 7  93922888.86448
        30.700    22936923.83648  22936925.105 4  90009396.206 4        34.000
  21383018.758 9 112368539.051 9        49.700    21383023.336 9  87559916.79249
        40.100    21383022.83649  21383024.105 6  83911591.819 6        39.600
  24640589.117 6 129487156.759 6        38.900    24640593.480 5 100899085.28646
        21.800    24640592.87546
  21480722.867 9 112881961.808 9        51.800    21480729.453 9  87960007.88149
        55.000    21480729.33249  21480725.129 6  84294928.765 6        40.100
  20417852.633 9 107296599.214 9        53.100    20417858.895 9  83607753.18849
        54.900    20417858.03149  20417855.344 7  80124025.920 7        42.600
 21 12 14  0  3 30.0000000  0 10G16G21G15G08G26G18G23G07G10G27
  21002724.453 9 110370085.963 9        49.800                    86002653.13849
        43.300    21002727.67649
  24029248.070 6 126274549.326 6        39.500                    98395767.58746
        22.500    24029251.77746
  24552914.242 3 129026495.44813        32.400    24552917.871 5 100540093.46257
        26.700    24552917.81347
  22168774.648 8 116497703.854 8        46.100    22168781.633 9  90777479.66349
        35.800    22168780.91049  22168777.500 6  86995034.454 6        38.100
  23021035.500 7 120976350.166 7        43.400    23021043.324 7  94267319.63449
        41.600    23021042.64849  23021039.004 4  90339499.638 4        34.300
  22954243.633 7 120625375.698 7        43.900    22954248.168 7  93993826.45548
        31.400    22954247.67248  22954249.293 5  90077378.122 5        35.300
  21386421.422 9 112386419.630 9        48.900    21386425.945 9  87573849.72749
        39.900    21386425.18449  21386426.629 6  83924944.242 6        39.600
  24639497.188 6 129481419.134 6        39.900    24639501.711 6 100894614.41746
        22.900    24639500.82446
  21470886.938 9 112830273.231 9        52.500    21470893.492 9  87919731.08249
        54.900    21470893.47749  21470888.918 6  84256330.181 6        40.100
  20412282.648 9 107267329.346 9        53.200    20412288.637 9  83584945.50049
        55.000    20412288.22749  20412285.297 7  80102168.567 7        43.000
 21 12 14  0  4  0.0000000  0 10G16G21G15G08G26G18G23G07G10G27
  21012780.469 9 110422931.730 9        49.400                    86043831.64749
        42.800    21012783.71949
  24012862.141 5 126188450.593 5        36.300                    98328677.64945
        19.000    24012867.09845
  24553585.188 1 129030010.58611        30.800    24553587.191 5 100542832.63356
        24.700    24553586.60246
  22154045.438 8 116420303.286 8        45.900    22154052.773 8  90717167.54049
        36.600    22154052.11349  22154048.434 5  86937235.341 5        37.900
  23040784.891 7 121080137.166 7        43.100    23040792.711 7  94348192.59749
        41.200    23040792.58649  23040789.328 4  90417002.892 4        34.500
  22971592.000 7 120716541.863 7        43.100    22971596.750 7  94064865.01248
        30.500    22971596.37148  22971597.402 5  90145456.747 5        35.200
  21389938.250 9 112404901.638 9        49.200    21389942.934 9  87588251.29849
        40.200    21389942.29749  21389943.320 6  83938745.725 6        39.400
  24638503.188 6 129476195.109 6        39.500    24638506.789 5 100890543.72446
        22.800    24638506.28146
  21461147.547 9 112779092.868 9        51.900    21461154.195 9  87879850.28849
        55.100    21461153.93449  21461149.609 6  84218111.065 6        40.100
  20406784.336 9 107238435.993 9        52.600    20406790.676 9  83562431.19549
        54.900    20406790.02049  20406787.176 7  80080592.353 7        42.600
 21 12 14  0  4 30.0000000  0 10G16G21G15G08G26G18G23G07G10G27
  21022937.023 9 110476305.511 9        49.600                    86085421.59849
        42.700    21022940.49649
  23996513.445 6 126102535.061 6        38.900                    98261730.53346
        22.200    23996518.55146
  24554361.461 3 129034106.46313        32.600    24554366.578 5 100546024.30657
        25.800    24554365.99247
  22139354.336 8 116343098.913 8        46.400    22139361.305 8  90657008.29349
        36.900    22139360.55549  22139356.793 6  86879582.740 6        38.000
  23060572.625 7 121184121.008 7        42.900    23060580.789 7  94429218.95449
        40.700    23060579.62949  23060576.887 5  90494653.169 5        35.400
  22988964.844 7 120807836.099 7        43.000    22988969.289 7  94136003.35948
        30.500    22988968.98048  22988970.430 4  90213631.002 4        34.900
  21393569.547 9 112423984.237 9        48.700    21393574.238 9  87603120.86049
        39.900    21393573.72349  21393574.867 6  83952995.715 6        40.200
  24637606.648 6 129471484.309 6        39.400    24637610.480 5 100886872.97546
        22.600    24637609.53146
  21451505.313 9 112728422.318 9        51.700    21451511.707 9  87840366.75849
        54.900    21451511.72749  21451507.328 6  84180272.709 6        39.600
  20401357.977 9 107209920.189 9        52.500    20401364.387 9  83540211.10249
        55.300    20401363.54349  20401360.648 7  80059298.084 7        42.500
 21 12 14  0  5  0.0000000  0 10G16G21G15G08G26G18G23G07G10G27
  21033194.516 9 110530206.523 9        50.100                    86127422.38049
        42.700    21033197.68449
  23980200.055 5 126016803.720 5        37.700                    98194926.93046
        21.300    23980203.59046
  24555251.313 3 129038783.899 3        33.700    24555256.129 4 100549669.10147
        27.000    24555256.39147
  22124699.930 8 116266092.729 8        46.400    22124707.285 8  90597003.46849
        36.800    22124706.51249  22124703.367 6  86822078.119 6        38.100
  23080397.836 7 121288299.560 7        43.100    23080405.211 7  94510397.05349
        41.000    23080404.48849  23080400.922 4  90572448.797 4        34.100
  23006361.625 7 120899257.101 7        42.400    23006365.809 7  94207240.46747
        29.800    23006365.72347  23006367.391 5  90281899.885 5        35.300
  21397314.938 9 112443666.938 9        48.700    21397319.785 9  87618458.03349
        39.800    21397319.15249  21397320.234 6  83967693.847 6        39.300
  24636807.031 6 129467286.982 6        38.100    24636811.797 5 100883602.32546
        21.500    24636811.18046
  21441960.453 9 112678263.493 9        51.900    21441967.000 9  87801281.96449
        55.000    21441966.90649  21441962.863 6  84142816.456 6        40.100
  20396003.734 9 107181783.277 9        52.200    20396009.996 9  83518286.22949
        55.000    20396009.26249  20396006.426 7  80038286.764 7        42.500
 21 12 14  0  5 30.0000000  0 10G16G21G15G08G26G18G23G07G10G27
  21043551.656 9 110584633.146 9        50.000                    86169832.72549
        42.500    21043554.69149
  23963920.898 6 125931257.209 6        38.700                    98128267.36046
        22.000    23963925.35246
  24556253.000 5 129044043.311 5        35.200    24556257.125 4 100553767.36247
        27.100    24556256.68847
  22110084.547 8 116189285.857 8        46.400    22110091.645 8  90537153.97049
        35.900    22110090.34449  22110087.645 6  86764722.323 6        38.100
  23100258.523 7 121392670.558 7        42.100    23100266.203 7  94591725.09049
        40.900    23100265.81649  23100261.934 4  90650388.158 4        34.300
  23023781.805 7 120990803.519 7        41.700    23023786.887 7  94278575.31647
        29.500    23023786.09047  23023787.934 5  90350262.420 5        35.100
  21401174.305 9 112463949.033 9        48.300    21401179.195 9  87634262.27249
        39.400    21401178.52749  21401179.879 6  83982839.582 6        40.400
  24636106.438 6 129463602.965 6        38.000    24636111.078 6 100880731.64746
        22.000    24636110.84046
  21432513.367 9 112628618.165 9        52.900    21432519.664 9  87762597.30649
        54.900    21432519.56349  21432515.520 6  84105743.642 6        40.400
  20390721.820 9 107154026.425 9        52.400    20390728.082 9  83496657.52149
        54.900    20390727.28949  20390724.527 7  80017559.239 7        43.300
 21 12 14  0  6  0.0000000  0 10G16G21G15G08G26G18G23G07G10G27
  21054008.406 9 110639583.815 9        49.800                    86212651.41249
        42.400    21054011.48049
  23947677.766 6 125845896.301 6        39.300                    98061752.37046
        21.500    23947680.77746
  24557364.625 5 129049884.988 5        37.600    24557366.852 1 100558319.31847
        25.600    24557367.95347
  22095507.016 8 116112679.683 8        46.300    22095513.691 8  90477460.83749
        36.100    22095512.68849  22095509.414 6  86707516.442 6        38.400
  23120156.102 7 121497231.508 7        42.900    23120163.527 7  94673201.13449
        40.400    23120162.99649  23120158.789 3  90728469.400 3        33.800
  23041226.656 7 121082473.714 7        42.300    23041231.109 7  94350006.61547
        29.500    23041230.91047  23041232.117 4  90418717.370 4        34.700
  21405147.945 9 112484829.573 9        49.000    21405152.594 9  87650532.82249
        39.800    21405152.20349  21405153.797 6  83998432.182 6        40.100
  24635502.961 6 129460431.808 6        38.400    24635507.902 6 100878260.60946
        22.000    24635507.12146
  21423163.836 9 112579487.819 9        51.200    21423170.516 9  87724313.93049
        55.000    21423170.35249  21423166.285 6  84069055.402 6        40.100
  20385512.281 9 107126650.589 9        52.200    20385518.430 9  83475325.69449
        55.000    20385517.70349  20385515.141 7  79997116.273 7        42.900
 21 12 14  0  6 30.0000000  0 10G16G21G15G08G26G18G23G07G10G27
  21064564.461 9 110695058.147 9        49.400                    86255878.15649
        42.800    21064567.89849
  23931469.000 6 125760722.189 6        38.300                    97995383.02946
        22.200    23931473.76246
  24558587.461 5 129056310.084 5        37.100    24558590.359 1 100563325.84847
        25.200    24558591.02047
  22080967.953 8 116036276.869 8        46.000    22080974.734 8  90417926.18749
        36.800    22080973.91449  22080970.637 6  86650462.390 6        38.700
  23140089.242 7 121601980.995 7        42.300    23140096.887 7  94754824.11349
        40.300    23140096.19949  23140092.230 3  90806691.417 3        33.700
  23058693.680 7 121174267.266 7        41.300    23058699.105 7  94421534.01748
        30.000    23058698.74248  23058699.523 4  90487264.486 4        34.500
  21409235.469 9 112506308.736 9        48.600    21409240.063 9  87667269.84449
        39.900    21409239.58249  21409240.793 6  84014471.822 6        39.200
  24634997.750 6 129457774.389 6        39.000    24635001.750 5 100876189.88246
        22.200    24635000.47746
  21413913.273 9 112530875.119 9        52.600    21413920.000 9  87686433.91549
        54.900    21413919.75449  21413915.242 6  84032753.720 6        40.400
  20380375.797 9 107099657.887 9        53.500    20380381.906 9  83454292.42349
        55.100    20380381.34449  20380378.566 7  79976959.374 7        42.600
 21 12 14  0  7  0.0000000  0 10G16G21G15G08G26G18G23G07G10G27
  21075219.750 9 110751052.291 9        50.200                    86299509.94749
        42.800    21075223.18849
  23915296.438 6 125675734.531 6        38.700                    97929158.90746
        22.200    23915300.14146
  24559921.188 5 129063316.990 5        37.700    24559923.375 1 100568785.78946
        23.000    24559923.61746
  22066467.484 8 115960076.640 8        46.000    22066474.574 8  90358549.39549
        36.300    22066473.50849  22066470.328 6  86593559.642 6        38.600
  23160057.289 7 121706914.685 7        41.300    23160064.977 7  94836590.60249
        40.000    23160064.46149  23160060.484 4  90885050.930 4        34.400
  23076185.203 7 121266180.665 7        41.700    23076189.703 7  94493154.82448
        30.000    23076189.17648  23076189.906 4  90555901.123 4        34.200
  21413435.664 9 112528383.628 9        48.100    21413440.539 9  87684471.06449
        40.100    21413440.04749  21413441.211 6  84030956.344 6        39.400
  24634588.805 5 129455628.492 5        37.500    24634593.371 5 100874517.73246
        22.000    24634592.60246
  21404760.984 9 112482779.604 9        51.600    21404767.340 9  87648956.89149
        55.100    21404767.43449  21404763.141 7  83996838.243 7        41.000
  20375311.781 9 107073047.343 9        51.600    20375318.285 9  83433556.93849
        55.200    20375317.58649  20375314.574 7  79957087.858 7        42.700
 21 12 14  0  7 30.0000000  0 10G16G21G15G08G26G18G23G07G10G27
  21085974.117 9 110807565.309 9        49.200                    86343546.05949
        42.400    21085977.19149
  23899158.891 5 125590934.382 5        37.700                    97863080.90646
        21.100    23899164.34046
  24561364.672 5 129070906.734 5        37.100    24561368.563 2 100574699.89346
        24.900    24561368.94946
  22052005.727 8 115884081.426 8        45.700    22052012.996 8  90299332.34749
        36.600    22052012.10249  22052008.816 6  86536809.936 6        38.400
  23180060.805 7 121812030.692 7        41.800    23180067.891 7  94918499.17549
        39.900    23180067.40249  23180063.223 3  90963546.668 3        33.500
  23093697.555 7 121358213.073 7        41.100    23093702.465 7  94564868.36847
        28.600    23093701.81347  23093703.836 4  90624626.578 4        34.800
  21417750.203 9 112551053.960 9        48.800    21417754.887 9  87702136.26549
        39.900    21417753.94549  21417755.301 6  84047885.504 6        39.400
  24634277.641 5 129453994.096 5        37.100    24634281.777 5 100873244.15846
        21.300    24634281.13346
  21395707.648 9 112435203.442 9        51.700    21395713.895 9  87611884.56349
        55.100    21395713.71149  21395709.938 6  83961310.597 6        40.600
  20370321.195 9 107046820.621 9        52.300    20370327.402 9  83413120.53149
        55.100    20370326.79349  20370323.902 7  79937502.982 7        43.000
 21 12 14  0  8  0.0000000  0 10G16G21G15G08G26G18G23G07G10G27
  21096826.578 9 110864596.957 9        48.900                    86387986.29149
        42.100    21096830.02049
  23883058.383 6 125506322.861 6        38.500                    97797149.90146
        22.800    23883062.59446
  24562919.727 6 129079079.700 6        38.200    24562924.164 3 100581068.44547
        26.400    24562923.16447
  22037583.781 8 115808292.782 8        46.200    22037591.293 8  90240276.27149
        36.500    22037590.26649  22037586.824 6  86480214.573 6        38.100
  23200097.367 7 121917327.221 7        41.100    23200105.582 7  95000548.41049
        40.400    23200104.80949  23200100.992 3  91042177.183 3        33.200
  23111233.336 6 121450363.539 6        40.500    23111238.418 7  94636673.90147
        28.800    23111237.66447  23111239.727 5  90693440.206 5        35.000
  21422177.383 9 112574319.318 9        48.400    21422181.902 9  87720265.12449
        39.800    21422181.34049  21422182.641 6  84065258.992 6        39.400
  24634064.156 5 129452871.464 5        37.900    24634068.391 5 100872369.39146
        21.500    24634067.55146
  21386753.484 9 112388148.700 9        52.100    21386759.859 9  87575218.54249
        55.000    21386759.75849  21386755.430 6  83926172.343 6        40.600
  20365403.703 9 107020979.298 9        52.300    20365409.953 9  83392984.43149
        55.100    20365409.45749  20365406.590 7  79918205.855 7        43.000
 21 12 14  0  8 30.0000000  0 10G16G21G15G08G26G18G23G07G10G27
  21107777.852 9 110922145.064 9        49.100                    86432828.95649
        42.500    21107781.08249
  23866993.383 6 125421900.192 6        38.700                    97731366.08446
        22.300    23866997.51646
  24564586.172 5 129087835.797 5        37.100    24564590.289 3 100587891.41847
        27.000    24564589.92247
  22023201.594 8 115732712.375 8        46.700    22023208.570 8  90181382.46649
        37.300    22023207.76649  22023204.203 6  86423774.665 6        38.400
  23220168.727 7 122022801.558 7        41.300    23220176.391 7  95082736.19849
        39.900    23220175.66849  23220172.066 3  91120940.484 3        33.700
  23128791.836 7 121542630.313 7        42.100    23128795.949 7  94708570.05548
        30.100    23128795.77348  23128797.305 4  90762340.675 4        34.600
  21426717.469 9 112598178.510 9        48.400    21426722.109 9  87738856.70749
        39.400    21426721.62549  21426722.891 6  84083075.930 6        39.800
  24633948.484 6 129452260.244 6        38.200    24633952.609 5 100871893.07046
        23.000    24633952.61346
  21377898.469 9 112341616.672 9        51.600    21377904.863 9  87538959.82349
        55.000    21377904.99249  21377900.754 6  83891424.403 6        40.100
  20360559.742 9 106995524.146 9        52.900    20360565.852 9  83373149.25049
        55.100    20360565.36349  20360562.594 7  79899197.166 7        43.100
 21 12 14  0  9  0.0000000  0 10G16G21G15G08G26G18G23G07G10G27
  21118826.773 9 110980207.474 9        49.900                    86478072.38749
        41.800    21118829.96149
  23850964.125 6 125337667.153 6        39.800                    97665729.91346
        23.200    23850969.64546
  24566364.250 6 129097175.058 6        39.900    24566367.266 3 100595168.74847
        28.000    24566367.12947
  22008858.430 8 115657341.147 8        47.000    22008866.012 8  90122651.64249
        37.300    22008864.91849  22008861.973 6  86367490.971 6        38.400
  23240272.977 7 122128451.119 7        41.000    23240280.098 7  95165060.51249
        39.400    23240280.14549  23240276.238 3  91199834.600 3        33.400
  23146371.203 7 121635011.620 7        41.400    23146376.051 7  94780555.47047
        28.600    23146375.14847  23146376.512 4  90831326.733 4        34.500
  21431370.648 9 112622630.261 9        48.400    21431375.340 9  87757910.03149
        39.000    21431374.50849  21431375.945 6  84101335.366 6        39.500
  24633928.578 5 129452159.577 5        37.300    24633932.973 5 100871814.63146
        21.500    24633932.70346
  21369143.445 9 112295608.517 9        52.500    21369149.848 9  87503109.32349
        55.000    21369149.73049  21369145.449 6  83857067.680 6        40.600
  20355789.539 9 106970455.940 9        53.100    20355795.797 9  83353615.58649
        55.200    20355795.17649  20355792.117 7  79880477.405 7        42.800
 21 12 14  0  9 30.0000000  0 10G16G21G15G08G26G18G23G07G10G27
  21129973.336 9 111038782.649 9        49.300                    86523715.37049
        42.500    21129976.62549
  23834971.117 6 125253623.954 6        39.900                    97600241.77846
        21.500    23834975.62146
  24568251.484 6 129107097.370 6        38.900    24568255.141 4 100602900.46447
        28.500    24568254.59447
  21994556.211 8 115582180.636 8        46.600    21994563.055 8  90064085.02849
        37.000    21994562.04349  21994559.238 6  86311364.627 6        38.600
  23260410.258 6 122234273.238 6        40.700    23260418.063 7  95247519.30549
        39.000    23260417.50449  23260413.820 3  91278857.647 3        33.300
  23163971.102 6 121727506.042 6        39.900    23163977.219 7  94852629.02547
        28.100    23163975.98047  23163977.887 4  90900397.181 4        34.700
  21436135.945 9 112647673.497 9        48.300    21436140.703 9  87777424.24649
        39.700    21436140.18449  21436141.797 6  84120036.489 6        39.500
  24634006.211 5 129452569.195 5        37.200    24634011.324 5 100872133.82046
        21.700    24634010.70746
  21360488.313 9 112250125.676 9        52.300    21360494.840 9  87467668.16549
        54.900    21360494.60249  21360490.531 6  83823103.251 6        40.900
  20351092.938 9 106945775.589 9        53.200    20351099.078 9  83334384.14749
        55.400    20351098.66849  20351095.605 7  79862047.283 7        42.900
 21 12 14  0 10  0.0000000  0 10G16G21G15G08G26G18G23G07G10G27
  21141217.172 9 111097869.215 9        48.900                    86569756.84349
        42.100    21141220.47749
  23819014.594 6 125169771.391 6        40.200                    97534902.18646
        22.600    23819019.66446
  24570251.992 6 129117603.013 6        38.800    24570254.523 4 100611086.70047
        28.400    24570254.12147
  21980294.055 8 115507232.447 8        47.300    21980301.023 8  90005683.83649
        37.600    21980299.93049  21980296.785 6  86255396.852 6        38.800
  23280579.461 6 122340265.874 6        40.800    23280587.938 7  95330110.95449
        38.100    23280587.12149  23280583.340 3  91358007.957 3        33.800
  23181594.930 7 121820112.316 7        41.400    23181599.832 7  94924789.70647
        29.400    23181598.90647  23181600.523 5  90969551.164 5        35.000
  21441014.023 8 112673307.454 8        47.600    21441018.766 9  87797398.75649
        39.300    21441018.32049  21441020.023 6  84139178.717 6        40.000
  24634181.109 5 129453488.802 5        37.600    24634185.402 5 100872850.38946
        21.500    24634185.28946
  21351933.648 9 112205169.878 9        52.900    21351940.086 9  87432637.68149
        55.000    21351939.89549  21351935.789 7  83789532.328 7        41.100
  20346470.328 9 106921484.411 9        52.800    20346476.770 9  83315455.95849
        55.000    20346476.06649  20346473.297 7  79843907.780 7        42.600
 21 12 14  0 10 30.0000000  0 10G16G21G15G08G26G18G23G07G10G27
  21152557.555 9 111157465.042 9        49.200                    86616195.13849
        41.800    21152560.91849
  23803094.359 6 125086110.409 6        39.400                    97469711.87646
        22.200    23803098.56646
  24572361.305 5 129128692.248 5        37.100    24572364.242 4 100619727.67547
        28.600    24572364.88747
  21966072.375 8 115432497.766 8        47.000    21966079.793 8  89947449.02949
        37.700    21966078.35249  21966074.656 6  86199588.475 6        38.200
  23300781.992 7 122446426.302 7        41.600    23300789.094 7  95412833.35249
        39.200    23300788.79749  23300784.512 3  91437283.56013        33.000
  23199238.297 7 121912828.696 7        41.100    23199242.570 7  94997036.22447
        29.400    23199242.26647  23199243.813 4  91038787.415 4        34.700
  21446004.313 9 112699530.779 9        48.300    21446008.801 9  87817832.52449
        39.400    21446008.36349  21446010.094 6  84158761.082 6        40.300
  24634452.828 5 129454917.647 5        35.300    24634457.531 5 100873963.77245
        19.900    24634457.25445
  21343479.344 9 112160742.186 9        53.500    21343485.613 9  87398018.71849
        54.900    21343485.56649  21343481.641 6  83756355.840 6        40.300
  20341922.164 9 106897583.145 9        53.000    20341928.523 9  83296831.58049
        55.000    20341927.70349  20341925.023 7  79826059.401 7        43.200
 21 12 14  0 11  0.0000000  0 10G16G21G15G08G26G18G23G07G10G27
  21163995.289 9 111217568.634 9        49.600                    86663029.08849
        42.200    21163998.26649
  23787211.148 6 125002641.363 6        40.200                    97404671.11546
        22.500    23787215.44546
  24574582.273 5 129140364.582 5        35.400    24574585.578 4 100628823.03247
        26.400    24574585.48447
  21951891.891 8 115357977.911 8        46.900    21951898.840 8  89889381.61149
        37.400    21951897.77749  21951894.320 6  86143940.530 6        38.500
  23321014.805 7 122552751.911 7        41.400    23321022.406 7  95495684.46749
        39.200    23321021.97349  23321018.598 3  91516682.570 3        33.600
  23216901.898 7 122005653.584 7        41.100    23216906.715 7  95069367.28347
        28.900    23216906.35947  23216907.867 4  91108104.650 4        34.000
  21451106.297 9 112726342.223 9        48.200    21451110.965 9  87838724.55949
        39.400    21451110.50449  21451111.930 6  84178782.609 6        39.400
  24634822.656 6 129456855.119 6        38.400    24634826.738 5 100875473.46646
        22.200    24634826.41846
  21335125.742 9 112116843.895 9        52.700    21335131.961 9  87363812.26349
        55.000    21335132.04749  21335127.930 6  83723574.669 6        40.500
  20337448.508 9 106874072.597 9        53.100    20337454.492 9  83278511.67749
        55.000    20337454.03149  20337450.844 7  79808502.839 7        43.100
 21 12 14  0 11 30.0000000  0 10G16G21G15G08G26G18G23G07G10G27
  21175528.891 9 111278178.425 9        49.100                    86710257.49949
        41.400    21175531.98049
  23771364.742 7 124919364.978 7        41.200                    97339780.47346
        24.000    23771367.32046
  24576913.969 3 129152620.171 3        33.300    24576918.277 4 100638372.85946
        24.300    24576917.68846
  21937752.227 8 115283674.462 8        47.500    21937759.473 9  89831482.83649
        37.600    21937758.48849  21937755.348 6  86088454.188 6        38.700
  23341279.313 6 122659240.619 6        40.800    23341286.227 7  95578662.67149
        37.700    23341285.97349  23341282.418 3  91596203.337 3        33.200
  23234585.984 6 122098585.853 6        40.900    23234590.945 7  95141782.01147
        28.200    23234590.41847  23234591.984 4  91177502.103 4        34.000
  21456320.133 8 112753740.981 8        47.800    21456324.645 9  87860074.24049
        39.900    21456324.14149  21456325.328 6  84199242.743 6        39.700
  24635287.820 5 129459300.889 5        36.600    24635291.832 6 100877379.27446
        21.300    24635291.97346
  21326873.031 9 112073476.676 9        52.800    21326879.414 9  87330019.63049
        55.100    21326879.47749  21326875.227 7  83691190.076 7        41.100
  20333048.930 9 106850954.096 9        53.000    20333055.148 9  83260497.25349
        55.000    20333054.69949  20333051.594 7  79791239.002 7        43.000
 21 12 14  0 12  0.0000000  0 10G16G21G15G08G26G18G23G07G10G27
  21187158.719 9 111339292.573 9        49.100                    86757878.89949
        42.000    21187161.75449
  23755554.031 7 124836281.650 7        41.600                    97275040.28146
        23.900    23755558.03146
  24579357.852 3 129165459.123 3        33.500    24579362.277 4 100648377.31646
        24.100    24579361.39146
  21923654.180 8 115209589.223 8        46.500    21923661.547 8  89773754.08549
        37.900    21923660.36349  21923657.570 6  86033130.831 6        38.600
  23361573.586 7 122765889.715 7        41.000    23361580.777 7  95661765.86049
        38.900    23361581.10549  23361576.973 3  91675843.923 3        32.700
  23252291.055 6 122191623.903 6        40.400    23252295.699 7  95214279.17547
        28.300    23252295.11747  23252297.125 4  91246978.543 4        34.600
  21461645.570 8 112781725.795 8        47.200    21461650.035 9  87881880.59649
        39.500    21461649.24249  21461650.508 6  84220140.506 6        39.500
  24635849.406 5 129462254.290 5        35.800    24635853.723 5 100879680.58945
        19.300    24635853.40245
  21318722.016 9 112030641.738 9        51.600    21318728.367 9  87296641.77149
        55.000    21318728.25449  21318723.957 6  83659202.961 6        40.900
  20328724.313 9 106828228.442 9        53.500    20328730.676 9  83242788.95349
        55.000    20328730.08249  20328727.055 7  79774268.571 7        43.200
 21 12 14  0 12 30.0000000  0 10G16G21G15G08G26G18G23G07G10G27
  21198883.711 9 111400909.232 9        48.700                    86805891.86649
        42.400    21198887.24649
  23739779.453 5 124753392.080 5        37.900                    97210451.07146
        21.100    23739784.20746
  24581910.938 5 129178881.051 5        35.700    24581915.406 3 100658835.98746
        24.000    24581915.00846
  21909598.156 8 115135723.049 8        46.700    21909604.852 8  89716196.03649
        37.900    21909604.10249  21909600.973 6  85977971.031 6        38.700
  23381898.836 6 122872696.754 6        40.000    23381905.758 7  95744992.11749
        38.200    23381906.02749  23381901.199 3  91755602.422 3        32.800
  23270015.453 6 122284766.186 6        40.800    23270020.246 7  95286857.54247
        28.200    23270019.55947  23270021.449 4  91316532.807 4        34.900
  21467081.859 8 112810295.349 8        47.100    21467086.418 9  87904142.58749
        39.000    21467086.03149  21467087.227 6  84241474.884 6        39.200
  24636508.477 6 129465714.777 6        38.700    24636512.145 5 100882377.03446
        20.100    24636510.69146
  21310672.406 9 111988340.277 9        53.500    21310678.777 9  87263679.61149
        54.900    21310678.59449  21310674.563 6  83627614.223 6        40.400
  20324474.742 9 106805896.491 9        53.200    20324481.090 9  83225387.43249
        55.100    20324480.46949  20324477.586 7  79757592.099 7        43.100
 21 12 14  0 13  0.0000000  0 10G16G21G15G08G26G18G23G07G10G27
  21210704.281 9 111463026.572 9        48.600                    86854294.97149
        42.100    21210707.61349
  23724043.258 6 124670696.837 6        39.200                    97146013.25146
        23.600    23724047.44946
  24584576.422 5 129192885.929 5        37.600    24584580.102 2 100669748.85547
        25.100    24584579.56347
  21895584.031 8 115062077.922 8        46.400    21895591.109 8  89658810.23349
        37.500    21895589.89549  21895587.301 6  85922976.308 6        39.000
  23402251.703 6 122979659.351 6        40.000    23402260.121 7  95828339.56749
        38.500    23402259.86349  23402255.719 3  91835477.016 3        32.200
  23287759.398 7 122378011.323 7        41.100    23287763.996 7  95359516.07947
        28.500    23287763.37147  23287765.004 4  91386163.874 4        34.500
  21472629.586 8 112839448.570 8        47.200    21472634.301 9  87926859.37949
        39.400    21472633.55549  21472635.113 6  84263245.156 6        39.500
  24637262.719 5 129469681.692 5        37.700    24637266.973 4 100885468.12345
        19.300    24637265.86345
  21302724.445 9 111946573.725 9        52.400    21302730.777 9  87231134.25449
        54.900    21302730.40249  21302726.531 7  83596424.894 7        41.100
  20320300.148 9 106783959.327 9        53.700    20320306.473 9  83208293.53449
        55.100    20320305.93849  20320303.043 7  79741210.452 7        43.100
 21 12 14  0 13 30.0000000  0 10G16G21G15G08G26G18G23G07G10G27
  21222619.570 9 111525642.801 9        49.100                    86903086.83149
        41.700    21222623.12949
  23708344.875 6 124588196.332 6        39.500                    97081727.21946
        22.900    23708348.31646
  24587351.945 5 129207473.556 5        35.500    24587356.660 3 100681115.86047
        26.700    24587356.47747
  21881612.031 8 114988654.988 8        46.000    21881618.875 8  89601597.56549
        37.500    21881617.84049  21881614.938 6  85868147.479 6        38.900
  23422636.898 6 123086774.615 6        40.900    23422643.840 7  95911806.00949
        38.400    23422643.16849  23422639.449 3  91915465.67613        32.600
  23305522.688 7 122471357.570 7        41.100    23305527.582 7  95432253.39747
        27.400    23305526.70747  23305527.891 3  91455870.508 3        33.400
  21478287.844 8 112869183.865 8        47.300    21478292.508 9  87950029.74149
        39.700    21478291.89849  21478293.359 6  84285450.108 6        39.600
  24638113.977 5 129474154.297 5        37.600    24638118.129 5 100888953.30146
        21.800    24638118.05946
  21294878.578 9 111905342.974 9        51.900    21294884.645 9  87199006.40749
        55.000    21294884.78149  21294880.434 6  83565635.727 6        40.200
  20316201.016 9 106762417.556 9        53.700    20316207.332 9  83191507.74349
        55.700    20316206.65249  20316203.844 7  79725124.052 7        43.200
 21 12 14  0 14  0.0000000  0 10G16G21G15G08G26G18G23G07G10G27
  21234630.063 9 111588756.276 9        48.800                    86952266.14249
        42.000    21234633.08249
  23692683.523 7 124505891.410 7        41.100                    97017593.56547
        25.700    23692685.80547
  24590239.531 5 129222643.906 5        37.400    24590242.902 4 100692936.89847
        28.600    24590243.94147
  21867682.758 8 114915455.860 8        46.300    21867689.707 8  89544559.29249
        37.700    21867688.61749  21867685.281 6  85813485.830 6        38.700
  23443047.656 6 123194040.731 6        40.100    23443055.961 7  95995389.98849
        38.400    23443055.23049  23443051.691 3  91995567.009 3        32.900
  23323304.313 6 122564803.980 6        40.500    23323309.578 7  95505068.73247
        27.200    23323308.57447  23323310.539 3  91525651.857 3        33.100
  21484056.953 8 112899500.584 8        47.900    21484061.742 9  87973653.16049
        39.900    21484061.28549  21484062.746 6  84308089.201 6        39.600
  24639061.750 5 129479132.236 5        37.400    24639065.480 5 100892832.19646
        20.900    24639064.95746
  21287134.711 9 111864649.831 9        51.900    21287141.051 9  87167297.48249
        55.000    21287141.16449  21287136.816 7  83535248.024 7        41.100
  20312177.148 9 106741272.653 9        53.600    20312183.586 9  83175031.18549
        55.100    20312182.93049  20312180.121 7  79709334.048 7        42.500
 21 12 14  0 14 30.0000000  0 10G16G21G15G08G26G18G23G07G10G27
  21246734.195 9 111652365.085 9        49.400                    87001831.43649
        41.900    21246737.50049
  23677057.680 6 124423782.317 6        39.200                    96953612.51446
        23.300    23677061.23846
  24593236.531 5 129238396.789 5        37.500    24593240.750 4 100705211.87347
        29.100    24593240.68447
  21853795.883 8 114842482.054 8        47.000    21853803.008 9  89487696.60449
        37.500    21853802.22349  21853799.082 6  85758992.413 6        39.300
  23463488.789 6 123301454.816 6        39.800    23463496.133 7  96079089.25349
        38.900    23463495.87549  23463491.824 3  92075778.819 3        32.900
  23341106.016 7 122658348.861 7        41.300    23341110.781 7  95577960.83547
        27.200    23341109.74247  23341111.531 3  91595506.755 3        33.900
  21489936.570 8 112930397.021 8        47.600    21489941.285 9  87997728.31549
        39.000    21489940.46549  21489942.027 6  84331161.211 6        39.400
  24640104.359 5 129484614.791 5        37.100    24640109.203 5 100897104.26046
        21.500    24640108.32046
  21279493.523 9 111824495.129 9        53.000    21279499.938 9  87136008.11249
        54.900    21279499.75049  21279495.871 6  83505262.360 6        40.800
  20308229.516 9 106720525.176 9        53.800    20308235.391 9  83158864.31849
        55.400    20308234.82449  20308232.195 7  79693840.759 7        43.000
 21 12 14  0 15  0.0000000  0 10G16G21G15G08G26G18G23G07G10G27
  21258932.453 9 111716467.002 9        49.600                    87051780.97449
        42.300    21258935.74249
  23661469.453 6 124341869.645 6        38.800                    96889784.48946
        22.200    23661473.50446
  24596346.016 5 129254731.417 5        36.900    24596349.117 5 100717940.18247
        29.800    24596349.59847
  21839952.711 8 114769734.184 8        46.800    21839959.617 9  89431009.95149
        38.400    21839958.57849  21839955.387 6  85704667.704 6        38.500
  23483956.125 6 123409014.173 6        40.000    23483963.652 6  96162901.73049
        37.000    23483962.99249  23483959.547 3  92156099.114 3        32.500
  23358925.633 7 122751990.418 7        41.100    23358930.738 7  95650928.27047
        27.500    23358929.91047  23358931.273 3  91665433.898 3        33.900
  21495926.109 8 112961871.678 8        47.600    21495930.527 9  88022254.02049
        39.400    21495930.13749  21495931.672 6  84354665.025 6        39.500
  24641243.617 6 129490600.800 6        38.100    24641247.371 5 100901768.66546
        21.300    24641247.44546
  21271955.047 9 111784879.859 9        52.300    21271961.184 9  87105139.08849
        55.000    21271961.21149  21271957.234 7  83475679.572 7        41.300
  20304356.945 9 106700175.811 9        53.500    20304362.984 9  83143007.66449
        55.000    20304362.43049  20304359.609 7  79678644.829 7        43.300
 21 12 14  0 15 30.0000000  0 10G16G21G15G08G26G18G23G07G10G27
  21271224.305 9 111781060.784 9        49.300                    87102113.77749
        41.800    21271227.37149
  23645920.680 6 124260154.342 6        39.900                    96826110.31546
        24.800    23645924.38746
  24599565.477 6 129271648.323 6        38.400    24599569.320 5 100731122.20448
        31.000    24599568.88748
  21826152.688 8 114697214.962 8        46.500    21826159.988 9  89374501.47549
        37.700    21826158.82849  21826155.684 6  85650513.760 6        39.200
  23504450.672 6 123516716.905 6        39.400    23504459.043 7  96246825.93349
        37.600    23504458.48849  23504454.699 3  92236526.470 3        32.400
  23376762.477 6 122845727.882 6        40.200    23376767.742 7  95723970.43047
        26.400    23376767.10947  23376768.863 4  91735432.656 4        34.100
  21502025.586 8 112993923.869 8        47.600    21502029.844 9  88047229.75349
        39.000    21502029.65649  21502030.934 6  84378600.104 6        39.200
  24642478.469 5 129497089.971 5        37.000    24642482.813 4 100906825.15746
        20.600    24642481.43446
  21264519.430 9 111745805.821 9        52.800    21264525.801 9  87074691.79449
        54.900    21264525.80949  21264521.789 7  83446500.918 7        41.400
  20300560.500 9 106680226.110 9        53.900    20300566.883 9  83127462.43849
        55.000    20300566.14849  20300563.328 7  79663747.309 7        43.000
 21 12 14  0 16  0.0000000  0 10G16G21G15G08G26G18G23G07G10G27
  21283609.211 9 111846143.993 9        48.800                    87152827.95749
        41.600    21283612.68049
  23630407.719 6 124178636.715 6        39.600                    96762590.10746
        22.900    23630410.85246
  24602895.453 5 129289146.822 5        35.700    24602897.934 5 100744757.44747
        29.300    24602898.39847
  21812396.109 8 114624924.885 8        46.300    21812403.520 8  89318171.55849
        38.800    21812402.18849  21812399.375 6  85596530.923 6        39.400
  23524973.844 6 123624560.076 6        39.900    23524980.828 7  96330859.56649
        37.700    23524980.30949  23524976.652 3  92317058.671 3        32.200
  23394617.992 6 122939559.378 6        39.900    23394623.543 7  95797085.85847
        26.500    23394622.37147  23394623.707 4  91805501.571 4        34.700
  21508234.031 8 113026551.740 8        47.700    21508238.668 9  88072654.07449
        39.200    21508238.35549  21508239.516 6  84402965.100 6        39.200
  24643808.891 5 129504081.816 5        36.900    24643812.848 5 100912273.30446
        21.100    24643812.76646
  21257186.844 9 111707273.663 9        52.800    21257193.574 9  87044666.74549
        55.000    21257193.22349  21257189.215 6  83417726.900 6        40.800
  20296840.453 9 106660676.504 9        53.200    20296846.645 9  83112228.97849
        55.600    20296846.05149  20296843.055 7  79649148.580 7        43.000
 21 12 14  0 16 30.0000000  0 10G16G21G15G08G26G18G23G07G10G27
  21296087.219 9 111911715.558 9        49.600                    87203922.66349
        41.700    21296090.20349
  23614933.242 6 124097317.413 6        39.800                    96699224.49647
        25.600    23614937.68447
  24606334.977 6 129307226.887 6        38.300    24606338.992 4 100758845.83848
        30.000    24606338.02048
  21798684.109 8 114552866.236 8        47.500    21798691.488 9  89262021.97149
        38.300    21798690.02349  21798686.777 6  85542720.900 6        39.400
  23545520.836 6 123732541.530 6        39.800    23545528.809 7  96415000.94249
        37.500    23545528.64849  23545524.508 3  92397694.206 3        32.000
  23412491.711 7 123033483.811 7        41.100    23412496.543 7  95870273.73747
        26.800    23412495.63347  23412497.754 4  91875639.941 4        34.500
  21514552.328 8 113059754.310 8        47.200    21514556.969 9  88098526.21049
        39.000    21514556.57049  21514557.758 6  84427759.199 6        39.200
  24645235.102 5 129511575.073 5        37.900    24645239.082 5 100918112.24946
        21.700    24645238.65246
  21249958.055 9 111669284.908 9        52.800    21249964.395 9  87015065.13849
        54.900    21249964.14149  21249960.117 6  83389358.685 6        40.700
  20293196.398 9 106641528.240 9        52.700    20293202.844 9  83097308.25249
        55.400    20293202.34049  20293199.348 7  79634849.550 7        42.700
 21 12 14  0 17  0.0000000  0 10G16G21G15G08G26G18G23G07G10G27
  21308657.227 9 111977772.926 9        50.000                    87255395.92749
        42.100    21308660.59849
  23599495.781 6 124016196.877 6        39.300                    96636013.74346
        24.400    23599499.89546
  24609885.680 5 129325888.232 5        37.200    24609890.102 5 100773387.13747
        28.700    24609890.16047
  21785016.148 8 114481039.970 8        47.800    21785022.941 8  89206053.46149
        38.700    21785022.22749  21785018.816 6  85489084.421 6        38.800
  23566095.086 7 123840658.704 7        41.300    23566102.996 6  96499248.07649
        37.500    23566102.69149  23566098.602 3  92478431.012 3        32.600
  23430382.391 6 123127499.624 6        39.400    23430387.488 7  95943532.78047
        26.300    23430386.44947  23430388.512 4  91945846.499 4        34.500
  21520979.406 8 113093530.058 8        47.300    21520984.348 9  88124844.97249
        39.100    21520983.95349  21520985.246 6  84452981.361 6        39.600
  24646756.977 6 129519569.297 6        38.800    24646759.691 5 100924341.48846
        22.000    24646760.03546
  21242832.813 9 111631840.503 9        53.400    21242838.926 9  86985887.68149
        54.900    21242838.74649  21242834.766 7  83361396.966 7        41.300
  20289629.336 9 106622782.088 9        53.700    20289635.621 9  83082700.85649
        55.200    20289635.02049  20289632.102 7  79620850.802 7        43.300
 21 12 14  0 17 30.0000000  0 10G16G21G15G08G26G18G23G07G10G27
  21321319.633 9 112044313.914 9        49.600                    87307246.03449
        41.300    21321322.89149
  23584097.594 6 123935275.536 6        39.900                    96572958.22146
        24.100    23584100.99246
  24613548.320 5 129345130.064 5        37.400    24613552.371 5 100788380.77648
        30.700    24613551.96148
  21771392.172 9 114409447.676 9        48.400    21771399.738 8  89150267.26349
        38.600    21771398.29349  21771394.977 6  85435622.649 6        39.000
  23586694.813 7 123948908.996 7        41.200    23586702.445 7  96583598.94549
        37.600    23586702.03549  23586698.426 3  92559267.250 3        32.400
  23448289.211 6 123221605.421 6        39.400    23448295.117 7  96016861.92747
        26.400    23448294.88347  23448296.184 3  92016120.28013        33.500
  21527515.703 9 113127877.499 9        48.100    21527520.391 9  88151609.21049
        39.200    21527519.68049  21527520.969 6  84478630.435 6        39.500
  24648372.609 5 129528063.440 5        37.500    24648376.957 5 100930960.27546
        20.600    24648376.10546
  21235810.773 9 111594941.507 9        53.500    21235817.301 9  86957135.22649
        55.000    21235817.07449  21235813.195 7  83333842.533 7        41.400
  20286138.664 9 106604438.885 9        53.800    20286144.898 9  83068407.44549
        55.000    20286144.45749  20286141.332 7  79607152.953 7        43.400
 21 12 14  0 18  0.0000000  0 10G16G21G15G08G26G18G23G07G10G27
  21334073.992 9 112111338.186 9        49.400                    87359472.73149
        41.500    21334077.42649
  23568736.883 6 123854554.816 6        39.900                    96510058.98746
        23.200    23568740.69546
  24617320.125 5 129364952.984 5        37.500    24617323.547 5 100803827.23448
        30.500    24617323.97348
  21757813.563 9 114338091.767 9        48.100    21757820.789 9  89094665.25649
        38.400    21757819.73449  21757816.734 6  85382337.388 6        39.400
  23607319.594 7 124057290.890 7        41.300    23607327.031 7  96668052.35149
        37.000    23607326.41449  23607322.652 3  92640201.798 3        32.600
  23466214.648 6 123315800.723 6        38.800    23466219.934 7  96090260.82247
        26.500    23466218.69947  23466220.520 3  92086460.875 3        33.700
  21534161.156 8 113162796.131 8        47.600    21534165.277 9  88178818.53849
        38.900    21534164.36749  21534165.770 6  84504706.018 6        39.300
  24650084.508 6 129537057.471 6        38.500    24650088.301 5 100937968.57846
        21.800    24650088.00046
  21228893.484 9 111558589.872 9        53.100    21228899.609 9  86928809.29249
        54.900    21228899.59049  21228895.449 6  83306696.848 6        40.900
  20282724.906 9 106586500.443 9        53.600    20282731.430 9  83054429.43549
        55.200    20282730.94549  20282727.809 7  79593757.374 7        42.800
 21 12 14  0 18 30.0000000  0 10G16G21G15G08G26G18G23G07G10G27
  21346919.656 9 112178841.612 9        48.600                    87412072.79449
        41.600    21346922.78949
  23553413.773 6 123774033.147 6        39.500                    96447314.89146
        23.800    23553417.87546
  24621201.445 5 129385354.872 5        36.900    24621206.699 5 100819724.80248
        30.700    24621206.36348
  21744280.328 9 114266971.727 9        48.500    21744286.922 9  89039247.05149
        38.300    21744285.85249  21744282.965 6  85329228.274 6        39.000
  23627967.742 7 124165799.984 7        41.400    23627975.316 7  96752604.88849
        38.200    23627975.14849  23627971.395 3  92721231.290 3        32.800
  23484156.078 6 123410082.165 6        40.400    23484161.270 7  96163726.85947
        25.400    23484159.81647  23484162.305 4  92156865.844 4        34.300
  21540913.344 8 113198282.623 8        46.600    21540918.234 9  88206470.34449
        38.700    21540917.25849  21540918.879 6  84531205.682 6        39.600
  24651890.141 5 129546548.755 5        37.100    24651895.086 5 100945364.38746
        21.300    24651894.39846
  21222080.070 9 111522784.779 9        53.700    21222086.133 9  86900909.22549
        55.600    21222086.05149  21222082.289 7  83279959.295 7        41.000
  20279388.336 9 106568965.725 9        53.300    20279394.703 9  83040766.01649
        55.100    20279394.18049  20279391.102 7  79580663.240 7        43.100
 21 12 14  0 19  0.0000000  0 10G16G21G15G08G26G18G23G07G10G27
  21359855.797 9 112246823.287 9        49.100                    87465045.51749
        41.400    21359859.34449
  23538128.594 6 123693712.401 6        39.400                    96384727.34846
        22.900    23538133.10546
  24625194.719 6 129406336.349 6        38.100    24625198.422 5 100836074.05148
        30.800    24625198.88748
  21730791.742 9 114196090.511 9        48.800    21730798.813 9  88984014.93449
        39.200    21730797.78149  21730795.191 6  85276297.518 6        39.400
  23648640.867 6 124274435.004 6        40.200    23648648.215 7  96837255.55349
        37.000    23648648.03949  23648643.332 3  92802354.873 3        32.200
  23502114.352 6 123504449.629 6        39.400    23502118.555 7  96237259.92447
        27.000    23502118.25047  23502120.320 4  92227335.018 4        34.200
  21547774.398 8 113234336.731 8        47.200    21547779.195 9  88234564.46049
        38.800    21547778.37549  21547779.973 6  84558129.210 6        39.700
  24653791.266 6 129556537.657 6        38.300    24653795.164 5 100953147.93246
        21.500    24653794.70346
  21215370.828 9 111487528.509 9        53.200    21215377.336 9  86873436.81349
        55.000    21215377.11749  21215372.969 6  83253631.569 6        40.700
  20276128.945 9 106551836.888 9        53.200    20276135.184 9  83027418.87249
        55.700    20276134.64849  20276131.742 7  79567872.220 7        43.400
 21 12 14  0 19 30.0000000  0 10G16G21G15G08G26G18G23G07G10G27
  21372882.961 9 112315281.136 9        49.200                    87518389.28949
        41.300    21372886.34449
  23522882.773 6 123613593.329 6        39.000                    96322296.90246
        23.300    23522887.51246
  24629298.172 5 129427897.084 5        37.500    24629301.957 4 100852874.59947
        29.900    24629301.52747
  21717349.695 9 114125448.986 9        48.700    21717356.277 9  88928969.59749
        39.400    21717355.26649  21717352.281 6  85223545.747 6        39.400
  23669336.852 6 124383193.571 6        40.300    23669344.262 7  96922002.45549
        37.300    23669343.76649  23669339.328 2  92883570.605 2        31.200
  23520087.148 6 123598901.797 6        38.700    23520092.371 7  96310858.96647
        26.000    23520091.66047  23520093.395 4  92297867.453 4        34.100
  21554743.156 8 113270956.999 8        47.900    21554747.566 9  88263099.72849
        39.200    21554747.16449  21554748.422 6  84585475.507 6        39.400
  24655786.719 5 129567023.660 5        37.400    24655790.793 5 100961318.78946
        21.100    24655790.30546
  21208766.398 9 111452822.041 9        53.500    21208772.840 9  86846392.82749
        55.200    21208772.79349  21208768.625 6  83227714.418 6        40.900
  20272946.859 9 106535114.769 9        53.800    20272953.121 9  83014388.64649
        55.000    20272952.52749  20272949.574 7  79555384.925 7        43.200
 21 12 14  0 20  0.0000000  0 10G16G21G15G08G26G18G23G07G10G27
  21386000.234 9 112384213.132 9        49.700                    87572102.52649
        41.300    21386003.55949
  23507675.102 6 123533676.375 6        39.700                    96260024.03646
        24.000    23507679.52346
  24633509.656 5 129450036.779 5        35.900    24633514.469 4 100870126.32347
        28.500    24633513.71947
  21703952.609 9 114055049.533 9        49.100    21703959.633 9  88874112.87949
        39.400    21703959.03549  21703955.277 6  85170974.696 6        40.000
  23690055.734 6 124492073.104 6        40.000    23690063.324 6  97006843.65649
        36.400    23690062.28549  23690058.668 3  92964876.75313        32.500
  23538076.391 6 123693437.364 6        39.500    23538082.086 7  96384523.01547
        26.700    23538080.83247  23538082.566 3  92368462.120 3        33.700
  21561819.266 9 113308141.918 9        48.100    21561823.563 9  88292074.98349
        38.300    21561823.06649  21561824.633 6  84613243.440 6        39.400
  24657876.617 5 129578005.571 5        37.800    24657880.977 5 100969876.17046
        22.500    24657880.48446
  21202266.711 9 111418666.387 9        53.000    21202273.195 9  86819778.03949
        55.100    21202273.02749  21202269.129 7  83202208.580 7        41.100
  20269842.070 9 106518800.251 9        53.600    20269848.641 9  83001676.03149
        55.000    20269847.99249  20269844.797 7  79543202.023 7        43.100
 21 12 14  0 20 30.0000000  0 10G16G21G15G08G26G18G23G07G10G27
  21399207.727 9 112453617.682 9        49.200                    87626183.98749
        41.300    21399210.91449
  23492506.203 6 123453962.088 6        40.400                    96197909.08247
        25.000    23492511.05547
  24637833.672 5 129472754.813 5        35.600    24637838.141 4 100887828.66847
        27.200    24637838.03147
  21690602.188 9 113984893.176 9        48.300    21690609.508 9  88819445.59349
        39.300    21690608.66449  21690605.055 6  85118585.229 6        38.700
  23710797.266 6 124601071.079 6        40.300    23710804.742 7  97091777.14349
        36.300    23710804.32849  23710800.742 3  93046271.335 3        32.600
  23556082.047 6 123788054.706 6        39.600    23556086.863 7  96458250.78847
        26.500    23556086.17247  23556087.781 3  92439117.935 3        32.700
  21569002.203 9 113345889.871 9        48.400    21569007.203 9  88321488.98449
        39.200    21569006.57449  21569007.605 6  84641431.877 6        39.400
  24660060.102 5 129589482.447 5        36.700    24660065.156 5 100978819.15546
        21.100    24660064.64546
  21195872.133 9 111385062.428 9        52.900    21195878.531 9  86793593.14349
        54.900    21195878.49649  21195874.359 7  83177114.727 7        41.200
  20266815.547 9 106502894.131 9        53.500    20266821.625 9  82989281.64149
        55.700    20266821.11749  20266818.180 7  79531324.068 7        42.800
 21 12 14  0 21  0.0000000  0 10G16G21G15G08G26G18G23G07G10G27
  21412504.516 9 112523492.644 9        49.500                    87680632.00049
        41.400    21412507.81649
  23477375.922 6 123374450.809 6        40.500                    96135952.30847
        25.200    23477379.62947
  24642264.391 2 129496050.544 2        31.900    24642270.656 5 100905981.17046
        24.700    24642270.44146
  21677298.289 9 113914981.315 9        48.300    21677305.793 9  88764968.82449
        39.500    21677304.75849  21677301.586 6  85066378.322 6        39.600
  23731561.305 6 124710185.151 6        40.100    23731568.727 7  97176801.07149
        37.500    23731568.52049  23731564.379 2  93127752.58412        31.400
  23574102.398 6 123882752.709 6        39.400    23574107.594 7  96532041.42047
        25.000    23574106.60947  23574108.531 3  92509833.933 3        33.000
  21576292.297 8 113384199.468 8        47.200    21576297.102 9  88351340.62749
        38.800    21576296.69149  21576297.891 6  84670039.698 6        39.000
  24662338.234 5 129601453.181 5        37.100    24662342.402 5 100988146.96446
        21.100    24662341.70746
  21189582.719 9 111352011.240 9        52.900    21189589.113 9  86767838.97949
        55.000    21189588.95349  21189584.723 7  83152433.657 7        41.100
  20263866.453 9 106487397.344 9        53.800    20263872.820 9  82977206.22249
        55.000    20263872.16449  20263869.285 7  79519751.781 7        42.700
 21 12 14  0 21 30.0000000  0 10G16G21G15G08G26G18G23G07G10G27
  21425890.078 9 112593835.859 9        49.400                    87735444.88749
        40.700    21425893.66849
  23462284.023 6 123295142.931 6        39.100                    96074153.97246
        23.000    23462287.41446
  24646810.094 5 129519923.524 5        35.500    24646813.289 4 100924583.54647
        26.500    24646813.50047
  21664041.891 9 113845315.467 9        48.800    21664048.602 9  88710683.74849
        39.600    21664047.79349  21664044.324 6  85014355.126 6        39.800
  23752346.836 6 124819412.836 6        40.400    23752353.352 6  97261913.54549
        36.800    23752353.25449  23752348.855 2  93209318.751 2        31.600
  23592138.305 6 123977530.073 6        40.200    23592143.176 7  96605893.83647
        27.200    23592142.59447  23592143.625 3  92580609.147 3        33.800
  21583689.000 9 113423069.184 9        48.400    21583693.848 9  88381628.70749
        38.800    21583693.00049  21583694.418 6  84699065.773 6        39.200
  24664710.852 6 129613916.991 6        39.000    24664714.484 5 100997859.04746
        23.300    24664714.01646
  21183398.617 9 111319513.765 9        53.100    21183405.125 9  86742516.27649
        55.600    21183404.96149  21183400.695 7  83128166.050 7        41.200
  20260995.672 9 106472310.832 9        54.300    20261001.895 9  82965450.49349
        55.100    20261001.39849  20260998.277 7  79508485.871 7        42.900
 21 12 14  0 22  0.0000000  0 10G16G21G15G08G26G18G23G07G10G27
  21439365.164 9 112664644.834 9        48.500                    87790620.71149
        41.200    21439368.14149
  23447230.570 6 123216038.867 6        39.600                    96012514.49446
        24.200    23447235.42646
  24651461.133 3 129544372.957 3        32.400    24651465.293 4 100943635.04546
        24.900    24651465.10246
  21650831.813 9 113775897.233 9        48.600    21650838.887 8  88656591.62549
        39.900    21650837.77349  21650834.488 6  84962516.830 6        39.400
  23773152.320 6 124928751.398 6        38.400    23773160.035 6  97347112.43149
        35.000    23773159.20349  23773155.754 3  93290967.703 3        32.000
  23610188.313 7 124072385.098 7        41.600    23610193.480 7  96679806.85147
        28.100    23610192.75847  23610193.797 3  92651442.479 3        33.700
  21591192.023 8 113462497.106 8        47.500    21591196.430 9  88412351.76949
        38.600    21591195.92249  21591197.203 6  84728508.696 6        39.400
  24667175.664 5 129626872.797 5        36.700    24667180.324 5 101007954.49046
        21.700    24667179.43846
  21177320.094 9 111287570.585 9        53.200    21177326.496 9  86717625.50249
        55.100    21177326.38749  21177322.188 7  83104312.387 7        41.100
  20258202.867 9 106457635.070 9        53.400    20258209.070 9  82954014.83049
        55.800    20258208.72749  20258205.680 7  79497526.690 7        43.300
 21 12 14  0 22 30.0000000  0 10G16G21G15G08G26G18G23G07G10G27
  21452927.836 9 112735918.289 9        48.900                    87846158.45049
        41.100    21452930.83649
  23432215.945 6 123137139.260 6        39.400                    95951034.30547
        25.000    23432220.38747
  24656224.289 4 129569398.247 4        34.800    24656227.855 5 100963135.37347
        27.600    24656227.79747
  21637668.945 9 113706728.128 9        48.600    21637676.500 9  88602693.61749
        39.200    21637674.96149  21637671.938 6  84910864.592 6        39.400
  23793980.055 6 125038198.570 6        39.000    23793987.461 7  97432395.92649
        36.700    23793987.27749  23793984.434 3  93372697.656 3        32.700
  23628253.391 7 124167316.682 7        41.200    23628258.055 7  96753779.48247
        26.200    23628257.16047  23628258.914 3  92722332.873 3        33.100
  21598800.961 8 113502481.822 8        47.200    21598805.066 9  88443508.69049
        39.200    21598804.65649  21598805.758 6  84758367.383 6        38.900
  24669734.695 5 129640319.648 5        37.200    24669739.574 6 101018432.52746
        22.000    24669738.80146
  21171347.227 9 111256182.809 9        53.100    21171353.547 9  86693167.50049
        55.000    21171353.54749  21171349.234 7  83080873.479 7        41.100
  20255488.563 9 106443371.156 9        53.100    20255494.785 9  82942900.09049
        55.600    20255494.23049  20255491.242 7  79486875.079 7        43.100
 21 12 14  0 23  0.0000000  0 10G16G21G15G08G26G18G23G07G10G27
  21466578.367 9 112807653.392 9        49.100                    87902055.93249
        41.100    21466581.76249
  23417240.594 7 123058444.210 7        41.100                    95889713.57146
        22.900    23417244.83646
  24661096.203 6 129594998.959 6        38.400    24661099.992 5 100983084.01047
        29.900    24661099.07047
  21624554.406 9 113637809.618 9        48.000    21624561.621 9  88548990.88849
        39.400    21624560.18449  21624557.688 6  84859399.487 6        39.700
  23814827.078 6 125147751.629 6        38.200    23814835.219 7  97517761.93849
        36.600    23814834.55949  23814830.777 3  93454506.740 3        32.300
  23646332.406 6 124262323.441 6        39.900    23646337.367 7  96827810.70447
        27.300    23646336.68847  23646338.305 3  92793279.47713        33.700
  21606515.227 8 113543021.631 8        47.500    21606519.883 9  88475098.14249
        39.100    21606519.01249  21606520.160 6  84788640.650 6        38.800
  24672386.555 5 129654256.151 5        37.900    24672390.941 5 101029292.11646
        22.300    24672389.97346
  21165480.320 9 111225351.166 9        53.700    21165486.453 9  86669142.84749
        55.000    21165486.27049  21165482.316 6  83057849.861 6        40.900
  20252852.680 9 106429519.762 9        53.400    20252859.027 9  82932106.79049
        55.900    20252858.57849  20252855.570 7  79476531.515 7        43.000
 21 12 14  0 23 30.0000000  0 10G16G21G15G08G26G18G23G07G10G27
  21480316.969 9 112879848.421 9        49.200                    87958311.78049
        40.800    21480320.09449
  23402305.648 6 122979954.512 6        40.600                    95828552.79846
        23.500    23402308.59446
  24666077.234 5 129621174.223 5        37.500    24666081.313 4 101003480.29347
        29.600    24666080.71147
  21611487.813 9 113569143.450 9        48.000    21611494.844 9  88495484.78749
        39.900    21611493.68449  21611491.121 6  84808122.816 6        40.100
  23835693.656 6 125257408.540 6        38.400    23835701.813 6  97603208.83449
        35.700    23835701.28549  23835697.090 1  93536393.360 1        30.200
  23664425.625 7 124357404.248 7        41.400    23664431.012 7  96901899.62347
        28.400    23664429.99647  23664431.855 3  92864281.363 3        33.400
  21614335.328 8 113584115.124 8        47.500    21614339.598 9  88507119.05349
        38.600    21614339.03949  21614340.227 6  84819327.366 6        39.200
  24675131.945 5 129668681.709 5        37.900    24675135.813 5 101040532.80246
        22.000    24675135.52746
  21159719.172 9 111195076.748 9        53.200    21159725.371 9  86645552.39049
        55.000    21159725.22749  21159721.309 6  83035242.350 6        40.800
  20250295.547 9 106416081.965 9        53.500    20250301.992 9  82921635.77249
        55.600    20250301.28949  20250298.152 7  79466496.773 7        43.500
 21 12 14  0 24  0.0000000  0 10G16G21G15G08G26G18G23G07G10G27
  21494142.023 9 112952501.065 9        48.900                    88014924.22449
        40.200    21494145.35249
  23387408.297 7 122901670.576 7        41.300                    95767552.37446
        24.700    23387411.48446
  24671167.055 5 129647923.501 5        37.000    24671170.754 5 101024323.91547
        29.600    24671171.54747
  21598469.117 9 113500730.720 9        48.100    21598476.449 9  88442176.17049
        40.100    21598475.30949  21598472.527 6  84757035.364 6        39.800
  23856580.703 6 125367166.390 6        39.800    23856587.590 6  97688734.44349
        36.500    23856586.92649  23856584.180 2  93618355.411 2        31.200
  23682533.320 7 124452557.438 7        41.500    23682537.918 7  96976044.93247
        27.100    23682537.20347  23682538.129 3  92935337.293 3        33.100
  21622259.836 8 113625760.372 8        47.300    21622264.516 9  88539569.88549
        38.400    21622263.93849  21622265.258 6  84850426.082 6        38.600
  24677969.836 5 129683594.975 5        37.600    24677974.180 5 101052153.51646
        21.800    24677973.05146
  21154064.234 9 111165360.067 9        53.400    21154070.633 9  86622396.54649
        55.100    21154070.39149  21154066.262 6  83013051.332 6        40.700
  20247817.281 9 106403058.316 9        53.200    20247823.598 9  82911487.47449
        55.200    20247822.96549  20247820.238 7  79456771.311 7        43.000
 21 12 14  0 24 30.0000000  0 10G16G21G15G08G26G18G23G07G10G27
  21508054.078 9 113025609.674 9        49.500                    88071891.96249
        40.300    21508057.34049
  23372550.203 7 122823592.670 7        41.100                    95706712.49447
        25.600    23372554.33647
  24676366.680 5 129675246.144 5        37.100    24676370.301 5 101045614.28848
        30.400    24676370.82448
  21585499.383 8 113432573.541 8        47.900    21585506.570 9  88389066.68049
        39.200    21585505.16849  21585502.391 6  84706138.785 6        39.600
  23877485.445 6 125477022.973 6        38.500    23877492.836 7  97774336.97049
        36.300    23877492.93049  23877489.277 3  93700391.194 3        32.300
  23700653.211 6 124547782.117 6        40.400    23700658.352 7  97050245.94446
        24.700    23700657.43446  23700659.723 3  93006446.583 3        33.100
  21630289.172 8 113667956.010 8        47.800    21630294.152 9  88572449.60449
        38.800    21630293.29749  21630295.027 6  84881935.791 6        38.900
  24680900.438 6 129698995.212 6        38.100    24680904.480 5 101064153.67246
        22.000    24680904.44146
  21148515.727 9 111136202.222 9        53.200    21148521.816 9  86599676.16449
        55.000    21148521.85549  21148517.492 7  82991277.620 7        41.700
  20245417.875 9 106390449.907 9        53.200    20245424.281 9  82901662.73849
        55.200    20245423.76649  20245420.797 7  79447355.925 7        43.500
 21 12 14  0 25  0.0000000  0 10G16G21G15G08G26G18G23G07G10G27
  21522052.414 9 113099171.913 9        49.000                    88129213.18049
        40.400    21522055.95349
  23357731.258 6 122745721.398 6        39.300                    95646033.62046
        23.900    23357735.96546
  24681675.453 5 129703141.197 5        37.100    24681678.805 4 101067350.75747
        29.100    24681678.66047
  21572578.164 9 113364673.060 9        48.100    21572585.332 9  88336157.22249
        39.900    21572584.12549  21572581.051 6  84655433.897 6        39.900
  23898409.422 6 125586976.018 6        38.700    23898416.355 6  97860014.63149
        36.200    23898416.09849  23898412.836 2  93782498.930 2        31.600
  23718787.164 6 124643076.932 6        40.000    23718792.195 7  97124501.62747
        26.200    23718791.60947  23718793.215 3  93077608.250 3        33.300
  21638423.375 8 113710700.312 8        47.400    21638427.949 9  88605756.84349
        39.100    21638427.30549  21638428.879 6  84913855.264 6        39.200
  24683923.180 5 129714881.071 5        37.400    24683926.938 5 101076532.26046
        21.300    24683926.73846
  21143073.539 9 111107603.977 9        53.500    21143079.836 9  86577391.82449
        54.900    21143079.85549  21143075.441 7  82969921.797 7        41.300
  20243097.813 9 106378257.516 9        53.200    20243104.152 9  82892162.16549
        55.900    20243103.54349  20243100.637 7  79438251.245 7        42.800
 21 12 14  0 25 30.0000000  0 10G16G21G15G08G26G18G23G07G10G27
  21536136.938 9 113173185.780 9        49.500                    88186886.31449
        40.800    21536140.23049
  23342952.391 6 122668057.504 6        39.500                    95585516.34946
        24.600    23342956.78146
  24687092.945 6 129731608.286 6        38.900    24687095.793 4 101089532.91547
        29.900    24687095.87147
  21559706.688 8 113297030.948 8        47.900    21559713.859 9  88283449.08649
        40.500    21559712.34849  21559709.500 6  84604921.922 6        39.500
  23919350.359 6 125697022.896 6        39.400    23919357.668 6  97945765.45449
        35.700    23919356.81649  23919352.961 2  93864676.790 2        31.400
  23736935.133 6 124738440.751 6        40.500    23736940.129 7  97198811.06947
        26.800    23736938.85247  23736940.559 3  93148821.529 3        33.200
  21646661.234 8 113753991.694 8        47.700    21646666.090 9  88639490.38949
        38.200    21646665.32449  21646666.594 6  84946183.206 6        39.500
  24687038.711 5 129731251.631 5        37.400    24687042.535 5 101089288.55046
        21.700    24687042.44146
  21137738.117 9 111079566.180 9        53.500    21137744.441 9  86555544.19749
        55.200    21137744.38749  21137740.008 7  82948984.508 7        41.300
  20240857.125 9 106366482.090 9        53.400    20240863.246 9  82882986.51249
        55.200    20240862.85249  20240859.902 7  79429457.893 7        42.900
 21 12 14  0 26  0.0000000  0 10G16G21G15G08G26G18G23G07G10G27
  21550306.750 9 113247648.204 9        49.200                    88244908.97949
        40.200    21550309.97349
  23328213.922 6 122590600.971 6        40.000                    95525160.66147
        25.800    23328217.41847
  24692617.547 5 129760645.909 5        36.400    24692620.832 3 101112159.63847
        29.600    24692620.69547
  21546884.070 9 113229648.400 9        48.300    21546891.094 9  88230943.20849
        39.700    21546890.16049  21546886.938 6  84554603.819 6        40.100
  23940308.164 6 125807160.771 6        38.100    23940316.172 6  98031587.17849
        34.600    23940315.54749  23940312.328 2  93946922.578 2        31.700
  23755094.125 6 124833871.669 6        39.600    23755099.609 7  97273172.79647
        26.800    23755098.92647  23755100.391 3  93220084.773 3        33.400
  21655003.516 8 113797827.854 8        47.300    21655007.789 8  88673648.43749
        38.500    21655007.17249  21655008.605 6  84978918.021 6        39.200
  24690245.547 5 129748105.134 5        36.500    24690249.730 5 101102421.12846
        21.300    24690249.00846
  21132509.484 9 111052089.016 9        52.000    21132515.836 9  86534133.43649
        55.100    21132515.62949  21132511.426 7  82928465.877 7        41.200
  20238695.828 9 106355123.844 9        52.700    20238701.918 9  82874135.92749
        55.600    20238701.25449  20238698.520 7  79420976.076 7        43.100
 21 12 14  0 26 30.0000000  0 10G16G21G15G08G26G18G23G07G10G27
  21564561.742 9 113322557.916 9        48.500                    88303280.17349
        40.200    21564564.66049
  23313513.953 6 122513352.373 6        40.700                    95464967.00747
        27.000    23313517.33247
  24698251.484 4 129790253.976 4        34.900    24698255.617 4 101135230.84547
        27.900    24698256.45347
  21534111.039 9 113162527.505 9        48.100    21534118.230 9  88178641.21449
        40.200    21534117.28149  21534114.285 6  84504481.059 6        40.100
  23961283.969 6 125917387.662 6        38.400    23961291.957 7  98117478.23449
        35.500    23961291.48449  23961287.934 2  94029234.856 2        31.800
  23773266.922 6 124929369.060 6        38.900    23773272.223 7  97347586.31746
        22.200    23773271.35946  23773273.113 3  93291397.701 3        33.300
  21663448.719 9 113842207.687 9        48.000    21663452.977 9  88708230.12249
        39.300    21663452.33249  21663453.945 6  85012058.798 6        39.200
  24693544.469 5 129765440.910 5        37.600    24693549.141 5 101115929.50246
        22.300    24693547.98846
  21127387.664 9 111025173.792 9        53.200    21127394.082 9  86513160.53549
        55.300    21127393.60949  21127389.508 7  82908366.846 7        41.300
  20236613.852 9 106344184.181 9        52.500    20236620.051 9  82865611.50949
        55.800    20236619.66049  20236616.598 7  79412806.869 7        42.900
 21 12 14  0 27  0.0000000  0 10G16G21G15G08G26G18G23G07G10G27
  21578901.195 9 113397912.826 9        48.700                    88361998.28349
        40.600    21578904.43049
  23298853.398 6 122436312.158 6        40.500                    95404935.70647
        26.200    23298856.94947
  24703994.766 5 129820431.556 5        35.900    24703999.211 6 101158745.89248
        30.800    24703999.49648
  21521388.422 9 113095669.594 9        48.500    21521395.734 9  88126544.14449
        40.200    21521394.68449  21521391.582 6  84454554.675 6        39.700
  23982275.781 6 126027701.006 6        38.400    23982283.789 6  98203436.67649
        36.200    23982283.45749  23982279.680 2  94111611.652 2        31.400
  23791452.453 6 125024931.450 6        40.000    23791456.789 7  97422050.50947
        26.500    23791456.02047  23791457.844 3  93362759.220 3        33.700
  21671996.844 8 113887129.228 8        47.300    21672001.363 9  88743233.92449
        37.900    21672000.78549  21672002.066 6  85045604.095 6        38.300
  24696935.523 5 129783257.938 5        36.700    24696939.164 5 101129812.89146
        20.600    24696938.36746
  21122372.727 9 110998820.999 9        53.200    21122379.336 9  86492625.90549
        55.700    21122379.11749  21122374.496 6  82888687.827 6        40.900
  20234612.047 9 106333663.689 9        53.400    20234618.313 9  82857413.72149
        56.100    20234617.73049  20234614.691 7  79404950.617 7        42.900
 21 12 14  0 27 30.0000000  0 10G16G21G15G08G26G18G23G07G10G27
  21593325.000 9 113473710.466 9        49.100                    88421061.36449
        39.900    21593328.24649
  23284232.023 6 122359480.699 6        40.300                    95345067.09347
        26.000    23284237.02347
  24709845.344 5 129851177.878 5        37.200    24709849.961 5 101182704.06848
        31.200    24709849.04748
  21508716.352 8 113029076.143 8        47.600    21508723.266 9  88074653.15549
        40.500    21508722.48049  21508719.363 6  84404825.845 6        40.400
  24003284.531 6 126138098.225 6        38.300    24003291.383 6  98289460.47249
        35.700    24003290.78549  24003287.535 2  94194051.191 2        31.700
  23809649.375 6 125120557.531 6        39.500    23809654.098 7  97496564.35647
        25.800    23809653.66847  23809655.254 3  93434168.334 3        33.500
  21680647.711 8 113932590.687 8        47.600    21680652.316 9  88778658.43649
        38.100    21680651.80549  21680653.105 6  85079552.598 6        38.700
  24700417.336 5 129801554.698 5        37.800    24700420.711 5 101144070.09746
        21.100    24700420.60546
  21117465.086 9 110973031.280 9        53.800    21117471.285 9  86472530.03049
        55.100    21117471.44149  21117466.961 7  82869429.272 7        41.000
  20232690.008 9 106323563.086 9        52.000    20232696.230 9  82849543.11849
        56.100    20232695.67249  20232692.555 7  79397407.972 7        43.400
 21 12 14  0 28  0.0000000  0 10G16G21G15G08G26G18G23G07G10G27
  21607832.695 9 113549948.487 9        49.400                    88480467.61349
        40.100    21607835.91849
  23269652.148 7 122282858.509 7        41.600                    95285361.52347
        25.800    23269655.53547
  24715803.781 5 129882491.750 5        35.600    24715808.590 5 101207104.50248
        31.100    24715808.89148
  21496094.547 9 112962748.675 9        48.200    21496101.980 9  88022969.41949
        40.200    21496100.77349  21496097.520 6  84355295.596 6        40.600
  24024307.125 6 126248576.858 6        38.300    24024314.723 6  98375547.70849
        35.100    24024314.50849  24024310.699 1  94276551.41511        30.500
  23827857.844 6 125216246.072 6        38.800    23827863.344 7  97571126.81746
        23.300    23827862.34046  23827864.082 3  93505624.045 3        33.600
  21689400.992 8 113978590.214 8        47.600    21689405.727 9  88814502.22149
        38.600    21689405.22749  21689406.688 6  85113902.911 6        38.800
  24703988.813 5 129820329.958 5        36.300    24703993.570 5 101158700.15446
        20.900    24703993.06346
  21112664.633 9 110947805.228 9        53.200    21112671.262 9  86452873.37449
        55.000    21112671.01649  21112666.734 6  82850591.653 6        40.900
  20230848.000 9 106313883.130 9        52.100    20230854.152 9  82842000.28649
        55.500    20230853.58249  20230850.496 7  79390179.430 7        43.100
 21 12 14  0 28 30.0000000  0 10G16G21G15G08G26G18G23G07G10G27
  21622423.445 9 113626625.048 9        48.500                    88540215.57149
        40.000    21622426.87149
  23255111.195 6 122206446.027 6        40.200                    95225819.37347
        25.300    23255114.62947
  24721869.266 3 129914372.896 3        33.200    24721875.023 5 101231946.96747
        28.300    24721875.32447
  21483524.039 8 112896689.233 8        47.600    21483531.070 9  87971494.53149
        39.900    21483529.92649  21483527.328 6  84305965.493 6        40.500
  24045346.109 6 126359134.734 6        38.700    24045353.645 6  98461696.69049
        36.200    24045353.11349  24045349.383 2  94359110.926 2        31.200
  23846079.063 6 125311996.135 6        39.500    23846083.852 7  97645737.21847
        25.100    23846083.40247  23846084.984 3  93577125.681 3        33.400
  21698256.789 8 114025126.344 8        47.300    21698261.363 9  88850764.14549
        38.000    21698260.72749  21698261.922 6  85148653.893 6        38.800
  24707653.852 5 129839582.852 5        37.300    24707657.328 5 101173702.43746
        20.600    24707656.85946
  21107971.953 9 110923143.826 9        53.300    21107978.305 9  86433656.70549
        55.200    21107978.05549  21107973.855 6  82832175.654 6        40.600
  20229086.125 9 106304624.912 9        52.500    20229092.469 9  82834786.08649
        55.700    20229091.83249  20229088.773 7  79383265.830 7        43.200
 21 12 14  0 29  0.0000000  0 10G16G21G15G08G26G18G23G07G10G27
  21637097.219 9 113703737.524 9        49.100                    88600303.20649
        40.200    21637100.95349
  23240610.906 7 122130243.642 7        41.500                    95166440.96947
        26.400    23240613.91047
  24728044.828 3 129946819.856 3        33.100    24728048.855 4 101257230.30847
        27.000    24728048.46947
  21471004.695 8 112830898.834 8        47.700    21471011.469 9  87920229.29449
        40.400    21471010.39549  21471007.563 6  84256836.285 6        40.300
  24066398.898 6 126469769.355 6        38.300    24066406.379 6  98547905.47349
        35.700    24066405.97749  24066402.789 2  94441727.59012        31.300
  23864310.578 6 125407806.283 6        39.900    23864315.906 7  97720394.45347
        25.600    23864315.14847  23864316.789 3  93648672.202 3        33.500
  21707213.859 8 114072197.079 8        47.000    21707218.555 8  88887442.64049
        38.400    21707217.98049  21707219.348 6  85183804.096 6        39.200
  24711407.234 5 129859311.918 5        36.600    24711411.535 5 101189075.69645
        19.900    24711411.27745
  21103386.570 9 110899047.450 9        54.100    21103392.781 9  86414880.30649
        55.000    21103392.61749  21103388.418 7  82814181.625 7        41.600
  20227404.531 9 106295789.020 9        52.000    20227410.898 9  82827900.97149
        55.800    20227410.38749  20227407.484 7  79376667.596 7        42.800
 21 12 14  0 29 30.0000000  0 10G16G21G15G08G26G18G23G07G10G27
  21651854.461 9 113781283.377 9        49.200                    88660728.54149
        40.400    21651857.56649
  23226150.094 7 122054251.724 7        41.400                    95107226.52447
        26.500    23226153.08647
  24734326.406 5 129979831.568 5        36.000    24734331.039 3 101282953.74747
        26.200    24734330.76647
  21458536.313 9 112765379.180 9        48.000    21458543.461 9  87869175.02249
        40.500    21458542.37949  21458539.352 6  84207909.304 6        40.400
  24087464.570 5 126580477.960 5        37.000    24087473.699 6  98634171.90948
        33.700    24087472.78548  24087469.184 1  94524399.609 1        30.500
  23882553.242 6 125503675.227 6        38.500    23882559.215 7  97795097.52747
        25.100    23882558.18447  23882560.469 3  93720262.673 3        32.800
  21716272.773 8 114119800.498 8        47.500    21716277.406 9  88924536.20749
        38.500    21716276.68849  21716277.727 6  85219352.107 6        38.600
  24715252.555 5 129879515.713 5        36.800    24715255.801 5 101204818.90345
        19.900    24715255.87145
  21098908.586 9 110875516.594 9        53.400    21098915.152 9  86396544.58249
        55.200    21098915.05149  21098910.891 7  82796609.876 7        41.500
  20225803.867 9 106287376.089 9        52.500    20225809.914 9  82821345.44249
        55.600    20225809.56349  20225806.273 7  79370385.204 7        43.000
 21 12 14  0 30  0.0000000  0 10G16G21G15G08G26G18G23G07G10G27
  21666692.586 9 113859261.139 9        48.500                    88721490.41649
        39.800    21666696.03949
  23211728.633 7 121978470.589 7        41.300                    95048176.32847
        27.500    23211732.69947
  24740715.508 5 130013407.530 5        36.900    24740719.531 3 101309116.81747
        26.200    24740720.06347
  21446119.977 9 112700131.789 9        48.000    21446127.445 9  87818332.90649
        40.800    21446126.39549  21446122.805 6  84159185.601 6        39.700
  24108547.211 6 126691258.320 6        38.600    24108554.469 6  98720494.25249
        34.900    24108553.84049  24108550.746 2  94607125.19412        31.200
  23900808.406 6 125599601.828 6        38.400    23900813.230 6  97869845.49846
        24.700    23900812.56346  23900814.230 3  93791896.098 3        33.700
  21725432.047 8 114167934.804 8        47.200    21725436.883 9  88962043.45549
        38.100    21725436.11349  21725437.270 6  85255296.569 6        38.700
  24719187.453 5 129900193.129 5        36.900    24719190.891 4 101220931.17145
        19.600    24719189.83645
  21094538.578 9 110852551.932 9        54.200    21094544.906 9  86378650.04949
        55.200    21094545.15649  21094540.613 7  82779460.972 7        41.300
  20224283.570 9 106279386.956 9        52.000    20224289.746 9  82815120.14349
        55.200    20224289.13749  20224286.219 7  79364419.307 7        43.100
 21 12 14  0 30 30.0000000  0 10G16G21G15G08G26G18G23G07G10G27
  21681613.352 9 113937668.336 9        48.300                    88782586.92949
        39.900    21681616.32449
  23197348.586 7 121902900.713 7        41.900                    94989290.76647
        25.900    23197351.89547
  24747212.523 5 130047546.559 5        37.800    24747216.402 3 101335718.68647
        27.200    24747216.57047
  21433756.602 9 112635158.316 9        48.200    21433763.285 9  87767704.22749
        41.000    21433762.34449  21433758.781 6  84110666.468 6        40.300
  24129640.773 6 126802107.894 6        38.100    24129648.645 6  98806870.54849
        34.300    24129647.86349  24129644.035 1  94689902.472 1        30.700
  23919073.766 6 125695584.824 6        39.400    23919078.645 7  97944637.44446
        24.400    23919077.50446  23919078.848 3  93863571.672 3        33.000
  21734692.430 8 114216598.165 8        47.300    21734696.977 8  88999962.96349
        37.300    21734696.27349  21734697.539 6  85291636.093 6        39.900
  24723211.820 5 129921342.672 5        36.100    24723215.367 4 101237411.33546
        20.400    24723215.37146
  21090276.445 9 110830153.990 9        53.600    21090282.984 9  86361197.12349
        55.500    21090282.63349  21090278.414 7  82762735.253 7        41.300
  20222844.039 9 106271822.379 9        51.800    20222850.367 9  82809225.66149
        56.100    20222849.60949  20222846.543 7  79358770.420 7        43.200
 21 12 14  0 31  0.0000000  0 10G16G21G15G08G26G18G23G07G10G27
  21696614.609 9 114016502.423 9        48.800                    88844016.08749
        39.500    21696617.96549
  23183008.586 7 121827542.527 7        42.900                    94930570.16347
        28.000    23183011.25847
  24753816.297 5 130082247.498 5        37.900    24753819.160 3 101362758.42647
        28.600    24753819.83247
  21421444.742 9 112570460.353 9        48.000    21421451.785 9  87717290.23149
        40.900    21421450.57449  21421447.223 6  84062353.035 6        40.200
  24150747.539 6 126913024.296 6        38.300    24150755.027 6  98893298.87849
        34.600    24150754.26649  24150750.789 1  94772729.63511        30.800
  23937349.039 6 125791623.020 6        38.400    23937353.930 7  98019472.38946
        24.800    23937353.68446  23937355.168 3  93935288.553 3        33.300
  21744053.000 8 114265788.589 8        46.600    21744057.816 9  89038293.15549
        37.900    21744057.18449  21744058.691 6  85328369.221 6        38.700
  24727326.250 5 129942962.862 5        36.500    24727329.996 5 101254258.24545
        19.300    24727329.82445
  21086122.383 9 110808323.186 9        53.400    21086128.719 9  86344186.11849
        55.200    21086128.52749  21086124.094 6  82746433.045 6        40.900
  20221485.492 9 106264682.975 9        51.900    20221491.594 9  82803662.48849
        55.400    20221491.10249  20221487.840 7  79353439.040 7        43.000
 21 12 14  0 31 30.0000000  0 10G16G21G15G08G26G18G23G07G10G27
  21711697.094 9 114095761.109 9        48.600                    88905776.08849
        39.700    21711700.64549
  23168708.102 7 121752396.477 7        42.600                    94872014.84447
        27.600    23168711.52047
  24760526.750 5 130117509.296 5        35.700    24760530.457 4 101390235.22447
        27.000    24760530.96147
  21409185.711 8 112506039.497 8        47.800    21409192.941 9  87667092.18149
        40.600    21409191.80549  21409188.648 6  84014246.589 6        40.800
  24171866.180 6 127024005.052 6        39.200    24171874.078 6  98979777.41749
        35.800    24171873.59049  24171869.914 2  94855604.842 2        31.100
  23955634.352 6 125887715.350 6        39.000    23955639.230 7  98094349.51846
        24.600    23955639.21946  23955640.895 4  94007045.763 4        34.000
  21753513.859 8 114315504.358 8        47.200    21753518.395 9  89077032.70749
        38.000    21753517.85549  21753519.316 6  85365494.594 6        38.500
  24731529.570 5 129965052.693 5        36.400    24731534.117 5 101271471.04645
        19.600    24731532.99645
  21082075.945 9 110787060.199 9        54.200    21082082.328 9  86327617.56849
        55.200    21082081.99249  21082078.305 7  82730554.827 7        41.300
  20220207.734 9 106257969.657 9        52.300    20220214.121 9  82798431.32549
        55.600    20220213.64549  20220210.508 7  79348425.844 7        43.000
 21 12 14  0 32  0.0000000  0 10G16G21G15G08G26G18G23G07G10G27
  21726860.320 9 114175442.419 9        49.500                    88967865.41349
        39.500    21726863.73049
  23154448.664 7 121677462.717 7        41.900                    94813624.93947
        27.400    23154452.41847
  24767342.625 4 130153331.100 4        34.000    24767346.680 4 101418148.39347
        26.200    24767347.03947
  21396979.602 8 112441897.290 8        47.900    21396986.969 9  87617111.23649
        40.800    21396985.85249  21396982.844 6  83966348.193 6        40.400
  24192996.797 5 127135047.767 5        37.100    24193005.215 6  99066304.19949
        34.100    24193004.11749  24193000.918 1  94938526.379 1        30.400
  23973929.875 6 125983860.569 6        39.100    23973935.281 6  98169267.83046
        22.600    23973934.56346  23973936.074 3  94078842.466 3        33.200
  21763074.070 8 114365743.460 8        47.300    21763078.438 9  89116180.06449
        37.900    21763077.82049  21763079.520 6  85403010.843 6        39.200
  24735822.477 5 129987610.573 5        36.900    24735826.281 5 101289048.66846
        20.600    24735825.78546
  21078137.945 9 110766365.419 9        53.500    21078144.348 9  86311491.77749
        54.900    21078144.05949  21078139.949 7  82715100.966 7        41.100
  20219011.547 9 106251683.061 9        52.100    20219017.926 9  82793532.68049
        56.200    20219017.35549  20219014.305 7  79343731.314 7        43.900
 21 12 14  0 32 30.0000000  0 10G16G21G15G08G26G18G23G07G10G27
  21742103.039 9 114255543.887 9        48.400                    89030282.13749
        39.200    21742106.25849
  23140229.844 7 121602741.746 7        41.800                    94755400.89047
        28.400    23140233.62547
  24774265.656 5 130189711.795 5        37.500    24774269.914 4 101446497.04247
        28.100    24774270.64147
  21384827.266 9 112378034.949 9        48.200    21384834.332 9  87567348.38349
        40.500    21384833.12549  21384830.184 6  83918658.809 6        40.400
  24214138.813 5 127246150.007 5        37.300    24214147.813 6  99152877.33849
        34.200    24214146.68849  24214143.375 2  95021492.26912        31.100
  23992235.727 6 126080057.399 6        39.600    23992240.879 6  98244226.39246
        23.000    23992240.18846  23992241.383 3  94150677.717 3        32.600
  21772733.336 8 114416503.931 8        46.900    21772737.930 9  89155733.68149
        37.700    21772737.33249  21772738.559 6  85440916.343 6        38.800
  24740203.250 5 130010635.111 5        36.200    24740207.758 5 101306989.81946
        20.400    24740207.57046
  21074307.852 9 110746239.253 9        54.100    21074314.184 9  86295809.05849
        55.200    21074314.13749  21074310.109 7  82700071.686 7        41.100
  20217896.492 9 106245823.856 9        51.700    20217902.973 9  82788967.06049
        55.500    20217902.41849  20217899.348 7  79339355.932 7        43.500
 21 12 14  0 33  0.0000000  0 10G16G21G15G08G26G18G23G07G10G27
  21757424.797 9 114336062.838 9        48.700                    89093024.16149
        38.900    21757428.48849
  23126050.938 7 121528234.112 7        42.300                    94697343.03447
        28.900    23126054.88347
  24781295.828 5 130226650.211 5        37.600    24781298.563 3 101475280.24747
        27.900    24781298.70347
  21372728.438 9 112314454.470 9        48.300    21372735.340 9  87517805.15149
        40.900    21372734.14549  21372730.969 6  83871179.863 6        40.300
  24235292.672 6 127357309.225 6        38.800    24235300.012 6  99239494.90249
        35.200    24235299.27749  24235296.547 1  95104500.745 1        30.800
  24010551.250 6 126176304.734 6        40.800    24010556.266 6  98319224.31047
        25.300    24010556.07847  24010556.738 3  94222550.760 3        32.100
  21782491.859 8 114467783.920 8        46.900    21782496.148 8  89195692.11249
        37.800    21782495.76649  21782496.664 6  85479209.860 6        38.400
  24744674.172 5 130034124.964 5        36.900    24744677.488 5 101325293.58446
        20.400    24744677.23046
  21070586.430 9 110726682.144 9        53.200    21070592.719 9  86280569.76549
        55.400    21070592.43849  21070588.309 7  82685467.377 7        41.300
  20216863.008 9 106240392.769 9        52.000    20216869.574 9  82784735.04549
        55.400    20216869.02749  20216865.918 7  79335300.241 7        43.200
 21 12 14  0 33 30.0000000  0 10G16G21G15G08G26G18G23G07G10G27
  21772826.688 9 114416997.061 9        48.500                    89156089.78049
        38.600    21772829.62949
  23111913.219 7 121453939.556 7        42.500                    94639451.21647
        28.200    23111917.56647
  24788430.414 5 130264145.101 5        37.300    24788433.328 3 101504497.03747
        26.500    24788432.52047
  21360683.602 9 112251157.290 9        48.300    21360690.629 9  87468482.66849
        40.700    21360689.26649  21360685.848 6  83823912.491 6        40.900
  24256455.305 6 127468522.975 6        38.300    24256462.746 6  99326154.98748
        32.900    24256462.31648  24256458.199 1  95187550.01711        29.600
  24028875.352 6 126272601.343 6        39.900    24028881.621 7  98394260.57146
        23.000    24028880.84446  24028882.078 3  94294460.493 3        33.200
  21792348.344 8 114519581.309 8        46.100    21792353.074 8  89236053.70949
        38.200    21792352.60949  21792353.355 6  85517889.722 6        38.800
  24749232.578 5 130058078.655 5        36.600    24749236.320 5 101343958.79846
        20.400    24749235.71546
  21066973.398 9 110707694.445 9        54.200    21066979.434 9  86265774.15949
        55.400    21066979.29749  21066974.961 7  82671288.262 7        41.200
  20215910.977 9 106235390.429 9        51.500    20215917.555 9  82780837.12049
        56.000    20215917.00849  20215913.820 7  79331564.752 7        42.700
 21 12 14  0 34  0.0000000  0 10G16G21G15G08G26G18G23G07G10G27
  21788306.578 9 114498344.865 9        48.700                    89219477.67949
        39.200    21788309.94949
  23097816.055 7 121379859.056 7        42.100                    94581726.19847
        27.700    23097819.93847
  24795669.805 3 130302195.576 3        33.600    24795674.059 3 101534146.75547
        25.600    24795674.06647
  21348692.258 9 112188145.032 9        48.300    21348699.313 9  87419382.21549
        41.200    21348698.47749  21348695.285 6  83776857.858 6        40.400
  24277629.328 5 127579789.119 5        37.800    24277636.695 6  99412855.84349
        34.600    24277636.26649  24277632.254 2  95270638.36612        31.400
  24047209.914 6 126368946.302 6        40.500    24047215.027 6  98469334.53946
        23.000    24047214.39546  24047216.441 3  94366406.408 3        32.900
  21802303.172 8 114571894.430 8        46.400    21802308.004 9  89276817.17849
        37.700    21802307.02749  21802308.570 6  85556954.733 6        39.000
  24753877.633 5 130082494.81115        36.200    24753882.609 5 101362984.40456
        21.100    24753881.81646
  21063468.352 9 110689276.775 9        54.800    21063474.852 9  86251422.74649
        55.100    21063474.43049  21063470.508 7  82657534.795 7        41.200
  20215040.953 9 106230817.759 9        51.700    20215047.297 9  82777273.99949
        55.700    20215046.80949  20215043.684 7  79328150.081 7        43.000
 21 12 14  0 34 30.0000000  0 10G16G21G15G08G26G18G23G07G10G27
  21803864.336 9 114580103.452 9        48.000                    89283185.66149
        38.800    21803868.03949
  23083760.578 7 121305992.917 7        43.300                    94524168.21947
        28.900    23083763.51247
  24803015.883 3 130340800.533 3        33.500    24803021.129 5 101564228.54547
        28.100    24803021.52747
  21336756.188 9 112125419.436 9        48.100    21336763.461 9  87370505.13949
        41.200    21336761.86749  21336759.031 6  83730017.350 6        40.400
  24298811.438 6 127691104.997 6        38.600    24298819.313 6  99499595.48849
        35.900    24298819.10949  24298815.938 3  95353763.844 3        32.400
  24065552.313 6 126465338.364 6        39.700    24065557.297 6  98544445.22646
        21.800    24065556.60246  24065558.504 2  94438387.457 2        31.700
  21812355.828 8 114624721.220 8        46.100    21812360.176 9  89317980.90749
        37.700    21812359.87149  21812361.281 6  85596403.325 6        38.900
  24758611.914 5 130107371.932 5        36.200    24758616.020 5 101382369.13946
        21.100    24758615.45346
  21060072.023 9 110671429.421 9        53.600    21060078.453 9  86237515.73049
        55.000    21060078.05549  21060074.141 7  82644207.260 7        41.100
  20214252.867 9 106226675.407 9        51.300    20214259.043 9  82774046.18149
        55.600    20214258.60549  20214255.516 7  79325056.760 7        43.400
 21 12 14  0 35  0.0000000  0 10G16G21G15G08G26G18G23G07G10G27
  21819500.375 9 114662270.527 9        48.000                    89347211.94149
        38.800    21819503.86749
  23069744.406 7 121232341.145 7        41.600                    94466777.27947
        27.800    23069747.88747
  24810468.164 5 130379958.435 5        35.400    24810473.105 5 101594741.23747
        29.500    24810472.53147
  21324874.703 9 112062982.223 9        48.300    21324881.832 9  87321852.76049
        40.500    21324880.60549  21324877.496 6  83683392.159 6        40.200
  24320003.586 5 127802468.182 5        37.100    24320009.664 5  99586372.00948
        31.700    24320009.41848  24320006.480 1  95436924.692 1        29.900
  24083903.758 6 126561776.281 6        39.600    24083908.707 6  98619591.65546
        22.900    24083908.60546  24083909.180 1  94510402.851 1        30.700
  21822505.992 8 114678059.540 8        46.000    21822510.211 9  89359543.23549
        37.900    21822509.76649  21822511.047 6  85636233.844 6        38.800
  24763432.930 5 130132708.678 5        37.300    24763437.770 5 101402112.05146
        21.800    24763436.91446
  21056784.602 9 110654152.629 9        53.700    21056790.648 9  86224053.30649
        55.300    21056790.37949  21056786.504 7  82631305.759 7        41.100
  20213546.648 9 106222963.860 9        51.900    20213552.891 9  82771154.06749
        55.000    20213552.36749  20213549.387 7  79322285.154 7        43.200
 21 12 14  0 35 30.0000000  0 10G16G21G15G08G26G18G23G07G10G27
  21835213.406 8 114744843.324 8        47.400                    89411554.36949
        38.600    21835216.81649
  23055770.430 7 121158904.172 7        42.900                    94409553.72347
        28.500    23055773.31647
  24818024.984 5 130419668.333 5        36.500    24818029.047 4 101625683.98848
        30.900    24818028.29748
  21313048.320 9 112000834.465 9        48.200    21313055.656 9  87273425.94449
        41.000    21313054.16449  21313051.422 6  83636983.128 6        40.900
  24341203.523 6 127913876.306 6        38.000    24341211.445 6  99673183.52049
        34.100    24341210.33649  24341206.254 1  95520119.02111        28.900
  24102264.016 6 126658258.936 6        38.000    24102270.207 7  98694772.91146
        22.500    24102268.86746  24102270.289 2  94582451.560 2        31.400
  21832752.852 8 114731907.355 8        46.100    21832757.262 9  89401502.57149
        38.100    21832756.48449  21832758.094 6  85676444.885 6        38.700
  24768341.031 5 130158503.444 5        35.100    24768345.605 4 101422211.85445
        19.900    24768345.27045
  21053605.336 9 110637446.648 9        54.500    21053611.730 9  86211035.67149
        55.300    21053611.54349  21053607.504 7  82618830.540 7        41.400
  20212922.172 9 106219683.812 9        52.700    20212928.586 9  82768598.17949
        55.700    20212928.07049  20212925.156 7  79319835.761 7        43.100
 21 12 14  0 36  0.0000000  0 10G16G21G15G08G26G18G23G07G10G27
  21851003.578 8 114827819.992 8        47.600                    89476211.50149
        38.400    21851006.95349
  23041836.258 7 121085682.413 7        42.700                    94352497.84847
        29.400    23041839.91447
  24825686.625 5 130459929.041 5        35.900    24825690.289 5 101657055.98747
        28.500    24825690.10247
  21301277.820 9 111938978.083 9        48.400    21301284.566 9  87225226.17049
        41.100    21301283.51249  21301280.566 6  83590791.671 6        40.500
  24362412.398 6 128025326.969 6        38.300    24362420.250 6  99760028.22149
        35.600    24362419.54749  24362415.867 1  95603345.17911        30.900
  24120631.883 5 126754785.408 5        37.300    24120638.355 7  98769988.30546
        23.000    24120637.85946  24120639.254 3  94654532.923 3        32.000
  21843096.109 8 114786262.879 8        46.300    21843100.906 9  89443857.52049
        37.700    21843100.14149  21843101.398 6  85717035.063 6        38.100
  24773337.555 5 130184754.518 5        37.500    24773340.719 4 101442667.27946
        21.700    24773340.96546
  21050535.180 9 110621312.064 9        53.800    21050541.402 9  86198463.28549
        55.400    21050541.20349  21050536.805 7  82606782.030 7        41.100
  20212380.586 9 106216836.149 9        51.900    20212386.852 9  82766379.22249
        56.400    20212386.23049  20212383.281 7  79317709.254 7        43.200
 21 12 14  0 36 30.0000000  0 10G16G21G15G08G26G18G23G07G10G27
  21866869.820 9 114911198.062 9        48.000                    89541181.41949
        38.400    21866873.22749
  23027943.297 7 121012676.377 7        42.800                    94295610.08947
        28.000    23027946.69947
  24833451.594 5 130500739.019 5        35.200    24833454.902 2 101688856.02847
        26.500    24833455.09847
  21289562.586 9 111877414.574 9        48.600    21289569.238 9  87177254.60449
        40.900    21289568.39849  21289565.254 6  83544818.931 6        40.600
  24383627.359 5 128136817.738 5        35.000    24383635.094 6  99846904.07548
        31.400    24383634.80948  24383631.637 2  95686601.291 2        31.200
  24139008.789 6 126851354.427 6        38.400    24139014.426 7  98845236.86346
        22.900    24139014.12546  24139015.809 3  94726646.151 3        32.000
  21853535.852 8 114841123.929 8        46.600    21853540.473 8  89486606.38349
        38.200    21853539.94949  21853541.223 6  85758002.714 6        39.000
  24778419.789 6 130211460.396 6        38.100    24778424.180 5 101463477.01646
        20.400    24778422.98846
  21047573.500 9 110605748.982 9        54.100    21047579.977 9  86186336.22349
        55.000    21047579.47749  21047575.352 7  82595160.235 7        41.300
  20211921.141 9 106214421.379 9        52.300    20211927.164 9  82764497.57449
        56.100    20211926.64549  20211923.754 7  79315905.997 7        43.600
 21 12 14  0 37  0.0000000  0 10G16G21G15G08G26G18G23G07G10G27
  21882812.094 8 114994975.076 8        47.000                    89606462.20249
        38.300    21882815.55549
  23014092.359 7 120939886.178 7        42.500                    94238890.48047
        29.300    23014095.28547
  24841322.656 5 130542097.482 5        36.700    24841326.258 3 101721083.44147
        25.300    24841325.57847
  21277903.203 9 111816145.310 9        49.400    21277910.207 9  87129512.31949
        41.400    21277909.32449  21277905.973 6  83499065.874 6        40.400
  24404852.078 6 128248346.423 6        39.400    24404858.398 5  99933809.54248
        31.800    24404856.89848  24404853.723 1  95769885.61411        28.700
  24157393.656 6 126947965.024 6        38.100    24157398.297 6  98920517.85546
        20.600    24157397.63346  24157399.199 2  94798790.375 2        31.500
  21864071.172 8 114896488.635 8        46.100    21864076.035 9  89529747.71649
        37.600    21864075.28949  21864076.762 6  85799346.481 6        38.200
  24783588.297 5 130238619.573 5        37.500    24783592.195 4 101484640.00746
        20.900    24783591.15646
  21044720.820 9 110590757.815 9        54.500    21044727.160 9  86174654.79949
        55.100    21044726.77749  21044722.742 7  82583965.564 7        41.300
  20211543.914 9 106212440.311 9        51.500    20211550.031 9  82762953.88649
        55.300    20211549.76249  20211546.895 7  79314426.642 7        43.300
 21 12 14  0 37 30.0000000  0 10G16G21G15G08G26G18G23G07G10G27
  21898829.805 8 115079148.414 8        47.100                    89672051.81649
        38.400    21898833.06649
  23000282.211 7 120867312.094 7        42.300                    94182339.29047
        28.300    23000285.28547
  24849296.469 5 130584002.504 5        36.300    24849299.574 3 101753736.73547
        28.400    24849300.17247
  21266300.758 9 111755172.185 9        49.300    21266307.477 9  87082000.79049
        41.200    21266306.38749  21266303.336 6  83453534.026 6        40.900
  24426081.828 6 128359910.140 6        39.100    24426088.973 6 100020742.36349
        34.100    24426088.25449  24426083.113 1  95853196.26511        29.200
  24175785.289 5 127044615.862 5        37.100    24175790.504 6  98995830.21446
        21.500    24175789.97746  24175790.660 1  94870964.63411        29.700
  21874702.273 8 114952354.642 8        45.900    21874706.871 8  89573279.66649
        37.600    21874706.34449  21874707.637 6  85841064.623 6        38.100
  24788842.523 5 130266230.537 5        37.100    24788845.926 3 101506155.07345
        19.600    24788845.33245
  21041976.891 9 110576338.531 9        53.700    21041983.148 9  86163419.00049
        55.100    21041982.91849  21041978.973 7  82573197.907 7        41.900
  20211249.773 9 106210893.301 9        52.000    20211255.914 9  82761748.41449
        55.500    20211255.38749  20211252.250 7  79313271.387 7        43.500
 21 12 14  0 38  0.0000000  0 10G16G21G15G08G26G18G23G07G10G27
  21914922.469 8 115163715.696 8        47.500                    89737948.38749
        38.400    21914925.73849
  22986512.227 7 120794954.602 7        42.700                    94125956.88547
        29.900    22986516.20347
  24857375.023 5 130626452.976 5        36.200    24857376.160 2 101786815.06846
        24.700    24857376.96546
  21254754.320 9 111694496.937 9        48.700    21254761.391 9  87034721.37949
        41.400    21254760.33249  21254757.172 6  83408224.614 6        40.500
  24447316.016 5 128471506.803 5        35.400    24447325.363 6 100107700.74748
        32.800    24447324.66048  24447321.203 2  95936531.39012        31.700
  24194185.398 6 127141305.934 6        38.700    24194190.418 7  99071173.09146
        23.400    24194190.48846  24194190.473 1  94943168.30411        30.100
  21885428.391 8 115008720.013 8        46.300    21885432.809 8  89617200.73949
        38.100    21885432.19949  21885433.219 6  85883155.614 6        38.100
  24794181.016 5 130294291.44715        36.100    24794185.703 5 101528020.69155
        19.000    24794184.85945
  21039341.883 9 110562491.448 9        53.600    21039348.109 9  86152629.08349
        55.100    21039347.88749  21039343.770 7  82562857.573 7        41.600
  20211037.844 9 106209781.101 9        52.900    20211044.305 9  82760881.76149
        55.700    20211043.68449  20211040.660 7  79312440.852 7        43.400
 21 12 14  0 38 30.0000000  0 10G16G21G15G08G26G18G23G07G10G27
  21931089.227 9 115248674.570 9        48.100                    89804150.10549
        38.300    21931092.96149
  22972784.273 7 120722813.963 7        42.600                    94069743.41847
        28.600    22972788.07047
  24865555.898 4 130669447.650 4        34.400    24865559.684 3 101820317.45446
        24.900    24865559.63346
  21243265.195 9 111634121.161 9        48.400    21243272.305 9  86987675.32249
        41.300    21243271.10549  21243267.852 6  83363138.788 6        40.700
  24468558.750 6 128583133.807 6        38.600    24468566.184 6 100194682.79649
        34.000    24468565.85249  24468562.941 2  96019889.15412        31.200
  24212591.898 6 127238034.021 6        39.700    24212597.609 6  99146545.57346
        22.800    24212596.96946  24212597.855 2  95015400.30812        31.700
  21896248.703 8 115065582.525 8        46.100    21896253.477 8  89661509.18449
        36.900    21896252.82849  21896254.160 6  85925617.899 6        38.300
  24799607.578 5 130322800.92415        36.900    24799611.559 5 101550235.83356
        20.100    24799610.57446
  21036816.000 9 110549216.670 9        54.300    21036822.094 9  86142285.11349
        55.200    21036821.80549  21036817.617 7  82552944.617 7        41.800
  20210909.250 9 106209104.228 9        52.000    20210915.418 9  82760354.33249
        55.600    20210914.84849  20210911.867 7  79311935.398 7        43.400
 21 12 14  0 39  0.0000000  0 10G16G21G15G08G26G18G23G07G10G27
  21947330.414 8 115334022.304 8        47.300                    89870654.81249
        38.200    21947334.18449
  22959097.492 7 120650890.456 7        43.600                    94013699.16848
        30.100    22959101.51248
  24873840.016 2 130712985.123 2        31.500    24873844.391 3 101854242.76546
        23.000    24873844.19946
  21231833.555 9 111574046.006 9        48.800    21231840.504 9  86940863.51149
        41.300    21231839.25849  21231835.828 6  83318277.467 6        40.900
  24489806.680 6 128694788.721 6        38.300    24489813.867 5 100281686.71248
        32.800    24489812.68848  24489809.250 1  96103267.89611        29.200
  24231006.047 6 127334799.206 6        40.000    24231010.680 6  99221947.00946
        22.200    24231009.96946  24231012.016 3  95087660.027 3        32.300
  21907163.656 8 115122940.205 8        45.900    21907168.441 9  89706203.48449
        37.800    21907167.99649  21907169.082 6  85968449.912 6        38.400
  24805116.773 5 130351757.173 5        35.800    24805120.777 3 101572799.16445
        19.300    24805120.34045
  21034398.367 9 110536514.465 9        54.300    21034404.941 9  86132387.29849
        55.000    21034404.66449  21034400.605 7  82543459.211 7        41.600
  20210862.969 9 106208863.418 9        52.700    20210869.633 9  82760166.67249
        55.600    20210869.03149  20210866.113 7  79311755.578 7        43.500
 21 12 14  0 39 30.0000000  0 10G16G21G15G08G26G18G23G07G10G27
  21963645.031 8 115419757.018 8        47.000                    89937461.07049
        37.800    21963648.65649
  22945452.852 7 120579184.307 7        43.000                    93957824.28847
        29.700    22945456.39547
  24882229.602 3 130757063.671 3        33.500    24882233.254 4 101888589.69347
        25.300    24882232.95347
  21220458.984 9 111514273.485 9        48.700    21220465.941 9  86894287.52449
        41.600    21220464.69949  21220461.602 7  83273642.131 7        41.000
  24511056.961 5 128806469.343 5        35.500    24511066.551 6 100368710.53248
        31.600    24511066.13748  24511062.129 1  96186665.77411        29.900
  24249426.375 6 127431600.337 6        39.500    24249431.359 6  99297376.42746
        21.300    24249430.23846  24249432.406 3  95159946.449 3        32.400
  21918172.328 8 115180790.873 8        46.000    21918176.824 9  89751281.91549
        36.900    21918176.43449  21918177.348 6  86011650.075 6        38.300
  24810711.719 5 130381158.530 5        35.200    24810715.453 2 101595709.27045
        16.300    24810714.97345
  21032090.586 9 110524384.947 9        53.900    21032096.621 9  86122935.73749
        55.400    21032096.37549  21032092.309 7  82534401.476 7        41.100
  20210900.445 9 106209059.189 9        53.000    20210906.730 9  82760319.22649
        56.100    20210906.41449  20210903.578 7  79311901.730 7        43.300
 21 12 14  0 40  0.0000000  0 10G16G21G15G08G26G18G23G07G10G27
  21980033.063 8 115505876.093 8        47.200                    90004566.84449
        38.700    21980036.58649
  22931849.039 7 120507696.019 7        43.300                    93902119.18047
        29.800    22931853.03147
  24890719.453 3 130801682.615 3        33.400    24890724.551 5 101923357.70347
        26.300    24890723.52047
  21209142.523 9 111454804.945 9        49.300    21209149.313 9  86847948.40149
        41.300    21209148.20349  21209145.418 6  83229233.823 6        40.700
  24532314.594 6 128918173.302 6        38.200    24532322.969 6 100455752.54049
        35.200    24532322.64149  24532319.496 2  96270080.99012        31.000
  24267853.133 6 127528436.529 6        38.800    24267859.273 6  99372833.18946
        21.300    24267858.06346  24267859.457 2  95232259.145 2        31.400
  21929274.313 8 115239132.569 8        46.000    21929279.078 8  89796742.97949
        37.500    21929278.35249  21929279.930 6  86055216.949 6        38.700
  24816390.875 5 130411003.99815        35.800    24816394.031 2 101618965.49055
        17.800    24816394.38345
  21029891.422 9 110512828.378 9        54.300    21029897.516 9  86113930.63849
        55.100    21029897.24249  21029893.238 7  82525771.586 7        41.400
  20211020.867 9 106209692.336 9        52.700    20211027.465 9  82760812.57349
        55.600    20211026.85949  20211024.086 7  79312374.546 7        43.200
 21 12 14  0 40 30.0000000  0 10G16G21G15G08G26G18G23G07G10G27
  21996494.375 8 115592377.028 8        47.200                    90071970.16049
        37.400    21996497.17649
  22918286.266 7 120436425.605 7        44.000                    93846583.82248
        30.100    22918291.22348
  24899312.375 4 130846839.870 4        34.700    24899316.996 5 101958545.18147
        27.200    24899315.98847
  21197884.508 9 111395642.031 9        49.400    21197891.164 9  86801847.43049
        41.800    21197890.11349  21197886.859 6  83185053.739 6        40.700
  24553575.992 5 129029897.853 5        36.500    24553582.348 5 100542810.69548
        30.900    24553581.73048  24553579.250 2  96353511.640 2        31.000
  24286288.047 6 127625306.359 6        39.200    24286293.258 6  99448316.13946
        22.900    24286292.60946  24286292.527 1  95304597.02611        30.400
  21940469.531 8 115297962.868 8        46.300    21940474.035 8  89842584.76949
        37.300    21940473.25849  21940475.082 6  86099148.672 6        38.300
  24822155.141 5 130441290.90515        35.000    24822158.668 3 101642565.67055
        17.400    24822158.09445
  21027801.039 9 110501844.553 9        53.800    21027807.336 9  86105371.82249
        55.300    21027807.03949  21027802.988 7  82517569.386 7        41.700
  20211224.898 9 106210763.149 9        53.500    20211231.043 9  82761646.97249
        55.000    20211230.39849  20211227.668 7  79313174.185 7        43.700
 21 12 14  0 41  0.0000000  0 10G16G21G15G08G26G18G23G07G10G27
  22013026.359 8 115679256.833 8        46.500                    90139668.70249
        37.500    22013030.40249
  22904765.813 7 120365373.572 7        42.200                    93791218.61947
        29.300    22904769.40247
  24908008.664 5 130892534.296 5        36.500    24908011.727 4 101994151.26647
        29.100    24908011.79747
  21186684.563 9 111336786.750 9        48.900    21186691.188 9  86755986.18249
        41.800    21186690.25849  21186687.164 6  83141103.364 6        40.900
  24574839.320 5 129141641.174 5        36.600    24574847.695 6 100629883.36048
        31.600    24574846.35548
  24304727.352 5 127722209.204 5        37.600    24304732.930 6  99523824.80046
        22.300    24304733.01646  24304733.324 2  95376959.460 2        31.200
  21951757.148 8 115357279.996 8        46.100    21951761.762 8  89888805.90549
        37.100    21951760.81349  21951762.332 6  86143443.923 6        38.100
  24828000.992 3 130472017.92913        33.700    24828006.266 3 101666508.82155
        17.400    24828005.63745
  21025820.148 9 110491433.929 9        53.500    21025826.121 9  86097259.66349
        55.200    21025826.04349  21025821.723 7  82509795.243 7        41.500
  20211512.070 9 106212272.658 9        52.200    20211518.398 9  82762823.20349
        55.800    20211517.69549  20211514.820 7  79314301.390 7        43.200
 21 12 14  0 41 30.0000000  0 10G16G21G15G08G26G18G23G07G10G27
  22029631.250 8 115766513.521 8        46.800                    90207660.91149
        37.900    22029634.69949
  22891287.023 7 120294540.277 7        42.900                    93736023.89648
        30.100    22891289.86748
  24916805.297 5 130938764.220 5        36.500    24916808.410 4 102030174.63047
        28.800    24916808.61747
  21175543.117 9 111278239.956 9        49.200    21175550.133 9  86710365.30049
        41.800    21175549.09849  21175546.027 6  83097383.368 6        40.600
  24596107.039 5 129253400.237 5        37.600    24596115.082 6 100716968.34049
        34.600    24596114.11749
  24323173.469 5 127819143.586 5        37.600    24323178.250 6  99599358.05146
        21.100    24323178.03146  24323179.750 2  95449345.559 2        31.300
  21963136.555 8 115417081.378 8        46.300    21963141.543 8  89935404.38849
        37.000    21963140.79749  21963142.352 6  86188100.776 6        38.600
  24833931.820 3                        33.700    24833936.703 3 101690809.54813
        17.800    24833935.97745
  21023947.719 9 110481596.131 9        53.700    21023954.199 9  86089593.84749
        55.000    21023954.21549  21023950.074 7  82502448.845 7        41.800
  20211882.625 9 106214220.829 9        52.200    20211889.160 9  82764341.25449
        55.700    20211888.50849  20211885.496 7  79315756.210 7        44.100
 21 12 14  0 42  0.0000000  0 10G16G21G15G08G26G18G23G07G10G27
  22046306.813 8 115854144.105 8        46.700                    90275944.47749
        37.300    22046310.19549
  22877849.461 7 120223925.805 7        43.500                    93680999.68747
        29.900    22877852.24647
  24925704.391 5 130985528.411 5        36.900    24925708.094 5 102066614.25647
        29.300    24925708.13747
  21164461.016 9 111220003.698 9        48.600    21164468.379 9  86664986.39549
        41.600    21164467.15249  21164463.883 6  83053895.249 6        40.300
  24617376.070 5 129365172.916 5        36.500    24617383.297 6 100804063.91748
        30.400    24617383.04748  24617380.035 1  96603871.43111        30.700
  24341624.977 5 127916108.591 5        37.700    24341629.801 6  99674915.15745
        19.000    24341630.00445  24341631.105 1  95521754.341 1        30.600
  21974608.547 8 115477364.974 8        46.300    21974613.172 8  89982378.61749
        37.500    21974612.62549  21974613.852 6  86233117.748 6        38.100
  24839945.523 3                        33.500    24839949.461 2 101715434.474 2
        15.600    24839949.89545
  21022184.930 9 110472331.382 9        53.400    21022191.141 9  86082374.57849
        55.300    21022191.04349  21022186.832 7  82495530.357 7        41.500
  20212337.047 9 106216608.499 9        52.200    20212343.469 9  82766201.77449
        55.600    20212342.87549  20212339.863 7  79317539.192 7        43.400
 21 12 14  0 42 30.0000000  0 10G16G21G15G08G26G18G23G07G10G27
  22063053.375 8 115942146.973 8        46.900                    90344518.13249
        38.200    22063056.27049
  22864453.797 7 120153530.165 7        43.300                    93626145.96548
        30.100    22864456.39548
  24934703.969 5 131032825.108 5        35.000    24934708.719 4 102103468.86247
        26.600    24934708.70747
  21153438.398 9 111162079.527 9        48.900    21153445.680 9  86619850.67549
        41.400    21153444.55549  21153441.625 7  83010640.187 7        41.100
  24638647.234 5 129476956.836 5        37.100    24638654.863 5 100891168.28948
        30.500    24638653.66848  24638651.344 1  96687346.31311        29.400
  24360083.570 5 128013103.155 5        37.400    24360088.289 6  99750495.33246
        20.100    24360087.55546  24360088.578 1  95594185.32911        29.900
  21986171.484 8 115538128.544 8        46.000    21986176.156 8  90029726.84549
        37.000    21986175.60949  21986176.551 6  86278493.172 6        38.100
  24846042.836 5 130566823.23515        35.200    24846046.738 3 101740383.16855
        16.900    24846046.19145
  21020530.758 9 110463639.624 9        54.100    21020537.387 9  86075601.78549
        55.200    21020536.97749  21020532.793 7  82489039.783 7        41.500
  20212875.492 9 106219436.143 9        52.600    20212881.531 9  82768405.13349
        55.700    20212880.93849  20212878.355 7  79319650.749 7        43.900
 21 12 14  0 43  0.0000000  0  9G16G21G08G26G18G23G07G10G27
  22079870.070 8 116030519.768 8        47.500                    90413380.04449
        37.800    22079873.07049
  22851098.961 7 120083354.459 7        42.400                    93571463.62747
        28.500    22851102.51247
  21142475.859 9 111104469.316 9        48.700    21142482.715 9  86574959.60249
        41.900    21142481.75449  21142478.504 6  82967619.585 6        40.700
  24659922.820 6 129588749.993 6        39.600    24659929.285 6 100978279.86248
        32.900    24659928.58648  24659924.035 1  96770828.36211        27.600
  24378545.898 5 128110126.856 5        36.500    24378550.996 6  99826098.18046
        20.400    24378550.51246  24378551.078 1  95666638.11211        29.600
  21997825.391 8 115599370.500 8        45.800    21997829.938 8  90077447.85249
        37.100    21997829.51649  21997830.309 5  86324225.803 5        37.900
  24852222.797 5 130599293.78715        36.600    24852225.863 3 101765684.92055
        16.300    24852225.57045
  21018986.070 9 110455521.441 9        53.000    21018992.262 9  86069275.93549
        55.300    21018992.26249  21018988.074 7  82482977.507 7        41.600
  20213497.109 9 106222704.909 9        52.100    20213503.641 9  82770952.21649
        55.200    20213502.90249  20213500.094 7  79322091.722 7        43.600
 21 12 14  0 43 30.0000000  0  9G16G21G08G26G18G23G07G10G27
  22096756.656 8 116119259.106 8        47.700                    90482527.56549
        37.200    22096759.78149
  22837787.094 7 120013398.383 7        42.300                    93516952.46047
        29.400    22837790.35947
  21131572.852 9 111047174.552 9        48.800    21131580.078 9  86530314.33549
        41.800    21131579.00849  21131575.695 7  82924834.513 7        41.300
  24681195.211 5 129700549.614 5        35.500    24681203.773 6 101065396.42548
        31.200    24681203.59448
  24397014.055 5 128207178.101 5        36.600    24397019.469 6  99901722.48046
        20.400    24397019.08646  24397019.707 1  95739111.43111        29.700
  22009569.875 8 115661088.056 8        45.600    22009574.391 8  90125539.46249
        36.100    22009573.91049  22009574.922 5  86370313.597 5        37.800
  24858482.883 4 130632195.68614        34.600    24858486.152 2 101791322.74155
        17.800    24858486.17645
  21017550.391 9 110447976.251 9        53.300    21017556.645 9  86063396.57449
        55.100    21017556.46949  21017552.262 7  82477343.115 7        42.300
  20214203.109 9 106226414.788 9        51.800    20214209.660 9  82773843.02849
        56.100    20214208.89849  20214206.199 7  79324862.057 7        43.800
 21 12 14  0 44  0.0000000  0  9G16G21G08G26G18G23G07G10G27
  22113712.133 8 116208362.023 8        46.600                    90551958.39149
        37.300    22113715.50449
  22824516.570 7 119943662.201 7        42.800                    93462612.61647
        29.000    22824518.86347
  21120730.648 9 110990196.486 9        49.100    21120737.242 9  86485915.84249
        42.200    21120736.55549  21120732.961 6  82882285.977 6        40.900
  24702471.836 5 129812353.321 5        37.500    24702478.773 5 101152516.15548
        30.500    24702477.10948
  24415488.086 5 128304255.704 5        36.900    24415493.090 6  99977367.33046
        20.100    24415492.23046  24415493.793 2  95811604.44112        31.300
  22021404.555 8 115723278.899 8        45.700    22021409.176 8  90173999.85149
        37.100    22021408.56649  22021409.727 6  86416754.802 6        38.100
  24864824.461 4 130665526.93814        34.200    24864830.012 4 101817295.10455
        17.800    24864828.47345
  21016223.484 9 110441003.865 9        54.400    21016229.711 9  86057963.55649
        54.900    21016229.79749  21016225.539 7  82472136.484 7        41.900
  20214993.313 9 106230566.170 9        52.300    20214999.363 9  82777077.86349
        55.800    20214998.89549  20214995.895 7  79327962.111 7        43.600
 21 12 14  0 44 30.0000000  0  9G16G21G08G26G18G23G07G10G27
  22130736.930 8 116297827.070 8        47.200                    90621671.41049
        37.300    22130740.09849
  22811288.266 7 119874146.047 7        43.400                    93408444.20547
        29.800    22811290.94147
  21109948.234 9 110933536.786 9        49.100    21109955.352 9  86441765.43249
        42.200    21109954.46949  21109951.340 7  82839975.168 7        41.500
  24723748.469 6 129924158.629 6        38.000    24723754.715 5 101239637.26248
        30.900    24723754.69948
  24433965.680 5 128401358.968 5        36.800    24433970.289 6 100053032.18645
        18.600    24433970.07845  24433972.215 2  95884116.563 2        31.100
  22033328.539 8 115785941.018 8        45.900    22033333.074 8  90222827.47049
        36.200    22033332.54349  22033333.973 6  86463547.908 6        38.400
  24871249.609 3                        33.000    24871253.988 3 101843615.71413
        16.300    24871253.43445
  21015005.555 9 110434604.436 9        53.900    21015011.855 9  86052976.99449
        55.200    21015011.79749  21015007.629 7  82467357.682 7        41.400
  20215867.250 9 106235159.759 9        52.300    20215873.785 9  82780657.28349
        55.800    20215873.07049  20215869.945 7  79331392.391 7        43.400
 21 12 14  0 45  0.0000000  0  9G16G21G08G26G18G23G07G10G27
  22147829.922 8 116387651.644 8        46.600                    90691664.58149
        37.700    22147833.19949
  22798101.688 7 119804850.671 7        43.700                    93354447.85048
        31.000    22798105.58248
  21099227.461 9 110877197.626 9        49.200    21099234.500 9  86397864.78049
        42.600    21099233.35949  21099230.227 6  82797903.704 6        40.600
  24745022.445 3 130035963.558 3        33.400    24745031.238 6 101326757.94548
        30.000    24745030.79748
  24452448.133 5 128498486.888 5        35.400    24452452.934 6 100128716.29145
        19.600    24452452.81345  24452454.813 1  95956647.04411        29.900
  22045342.047 8 115849072.183 8        46.000    22045346.590 8  90272020.57749
        37.100    22045345.92649  22045347.098 5  86510691.283 5        37.600
  24877754.992 5 130733470.51215        35.000    24877758.379 3 101870238.10355
        16.300    24877758.11345
  21013896.883 9 110428777.886 9        53.900    21013903.309 9  86048436.84049
        55.600    21013903.00849  21013898.930 7  82463006.710 7        41.600
  20216825.758 9 106240196.157 9        52.100    20216832.125 9  82784581.74049
        55.900    20216831.36749  20216828.504 7  79335153.325 7        44.100
 21 12 14  0 45 30.0000000  0  9G16G21G08G26G18G23G07G10G27
  22164990.469 8 116477832.978 8        46.800                    90761935.73649
        37.100    22164993.69949
  22784957.461 7 119735775.826 7        44.300                    93300623.33248
        30.900    22784960.21148
  21088567.484 9 110821180.060 9        49.000    21088574.715 9  86354214.73149
        42.500    21088573.61349  21088570.297 6  82756072.402 6        40.900
  24766297.953 5 130147765.550 5        36.100    24766306.031 5 101413876.35548
        30.500    24766304.97748
  24470935.500 5 128595638.479 5        37.000    24470941.078 6 100204418.77646
        20.400    24470940.87546  24470940.461 1  96029195.28711        29.900
  22057444.656 8 115912670.127 8        46.000    22057448.883 8  90321577.42549
        36.600    22057448.39149  22057449.855 5  86558183.291 5        37.900
  24884340.320 4 130768079.61714        34.700    24884343.297 1 101897206.16654
        14.800    24884343.06644
  21012897.148 9 110423524.108 9        53.500    21012903.441 9  86044343.00149
        55.000    21012903.38349  21012899.141 7  82459083.452 7        41.800
  20217868.398 9 106245675.826 9        52.000    20217874.949 9  82788851.60649
        55.800    20217874.13349  20217871.148 7  79339245.271 7        43.900
 21 12 14  0 46  0.0000000  0  9G16G21G08G26G18G23G07G10G27
  22182218.602 8 116568368.004 8        46.800                    90832482.50449
        37.000    22182222.09449
  22771854.516 7 119666921.955 7        43.900                    93246970.99548
        31.300    22771858.14148
  21077969.023 9 110765485.830 9        49.000    21077976.371 9  86310816.63349
        42.100    21077975.29749  21077971.902 7  82714482.579 7        41.700
  24787572.289 4 130259562.035 4        34.300    24787580.000 5 101500990.56747
        28.000    24787578.61747  24787576.594 1  97271748.35811        30.600
  24489427.078 5 128692812.548 5        36.500    24489432.551 6 100280138.77246
        20.400    24489432.76246  24489433.672 1  96101760.26811        29.200
  22069634.836 8 115976732.450 8        45.300    22069639.828 8  90371496.11949
        36.200    22069638.92249  22069640.398 6  86606022.040 6        38.100
  24891006.734 1                        30.300    24891009.898 1 101924518.01711
        30.900
  21012006.250 9 110418842.763 9        53.700    21012012.621 9  86040695.20849
        54.900    21012012.30949  21012008.230 7  82455587.640 7        42.000
  20218995.484 9 106251599.064 9        52.000    20219001.973 9  82793467.11549
        55.600    20219001.25049  20218998.313 7  79343668.491 7        43.200
 21 12 14  0 46 30.0000000  0  9G16G21G08G26G18G23G07G10G27
  22199514.289 8 116659254.524 8        46.700                    90903303.15749
        37.300    22199517.47749
  22758793.883 7 119598289.215 7        44.200                    93193490.98448
        30.600    22758796.77748
  21067432.758 9 110710116.270 9        48.700    21067439.863 9  86267671.52549
        42.400    21067438.71549  21067435.668 7  82673135.163 7        41.100
  24808845.148 3 130371350.756 3        33.700    24808853.582 6 101588098.60248
        30.500    24808853.09848
  24507923.820 5 128790007.948 5        36.700    24507928.582 6 100355875.41045
        19.300    24507927.64845  24507928.715 1  96174341.28911        29.400
  22081913.680 8 116041256.815 8        45.700    22081918.129 8  90421774.83749
        36.300    22081917.46149  22081919.000 5  86654205.806 5        37.900
  24897752.938 1                        29.600    24897757.598 2 101952142.375 2
        31.900
  21011224.180 9 110414733.612 9        52.700    21011230.527 9  86037493.27949
        54.900    21011230.44149  21011226.508 7  82452519.152 7        41.600
  20220207.383 9 106257966.292 9        52.000    20220213.609 9  82798428.58349
        55.300    20220212.91449  20220209.941 7  79348423.220 7        43.500
 21 12 14  0 47  0.0000000  0  8G16G21G08G26G18G23G10G27
  22216875.734 8 116750490.384 8        47.000                    90974396.02349
        37.300    22216879.18449
  22745775.633 7 119529878.113 7        43.200                    93140183.64648
        30.900    22745779.39148
  21056958.602 9 110655073.329 9        48.800    21056965.641 9  86224780.93249
        42.200    21056964.35949  21056961.086 7  82632031.699 7        41.300
  24830116.484 5 130483129.646 5        37.300    24830124.352 6 101675199.00148
        33.400    24830123.93848
  24526422.828 5 128887224.374 5        35.000    24526427.898 5 100431628.45645
        18.300    24526427.56645  24526429.074 1  96246937.94811        29.800
  22094279.570 8 116106241.392 8        46.100    22094284.379 8  90472412.16849
        36.300    22094283.86349  22094285.152 5  86702733.240 5        37.100
  21010551.484 9 110411196.976 9        53.200    21010557.492 9  86034737.46249
        55.000    21010557.29749  21010553.340 7  82449878.145 7        41.700
  20221503.539 9 106264778.475 9        51.600    20221510.078 9  82803736.77249
        55.100    20221509.40249  20221506.238 7  79353510.248 7        43.100
 21 12 14  0 47 30.0000000  0  8G16G21G08G26G18G23G10G27
  22234303.219 8 116842071.902 8        46.600                    91045758.23849
        37.600    22234306.66449
  22732800.047 7 119461688.515 7        44.300                    93087048.93048
        31.400    22732804.14148
  21046546.922 9 110600358.939 9        49.200    21046553.719 9  86182146.34349
        42.300    21046552.42249  21046549.352 7  82591173.566 7        41.000
  24851383.586 4 130594896.003 4        34.400    24851391.398 5 101762289.70547
        27.600    24851391.28947
  24544925.242 4 128984460.326 4        34.600    24544931.426 6 100507396.72045
        18.300    24544930.16445  24544931.680 1  96319549.18511        29.000
  22106733.156 8 116171683.471 8        45.800    22106737.758 8  90523405.98349
        36.500    22106736.84849  22106738.691 5  86751602.328 5        37.700
  21009987.305 9 110408232.213 9        53.400    21009993.496 9  86032427.26749
        54.900    21009993.05949  21009989.254 7  82447664.220 7        41.400
  20222884.711 9 106272035.655 9        51.800    20222890.871 9  82809391.70849
        55.300    20222890.30949  20222887.457 7  79358929.536 7        43.600
 21 12 14  0 48  0.0000000  0  8G16G21G08G26G18G23G10G27
  22251795.773 8 116933997.963 8        46.400                    91117388.92149
        37.100    22251799.49249
  22719865.945 7 119393721.141 7        44.500                    93034087.35948
        31.500    22719869.46148
  21036197.711 9 110545974.163 9        49.200    21036204.559 9  86139768.59049
        42.900    21036203.59049  21036200.129 7  82550561.538 7        41.100
  24872650.750 5 130706647.957 5        36.400    24872657.320 5 101849369.12748
        30.400    24872657.33648
  24563433.477 5 129081715.16415        36.400    24563438.512 6 100583179.62355
        19.000    24563437.19145
  22119272.508 8 116237581.076 8        45.900    22119277.438 8  90574754.77149
        35.700    22119276.75449  22119278.688 5  86800811.582 5        37.400
  21009531.773 9 110405839.418 9        53.800    21009538.133 9  86030562.75849
        55.300    21009537.84049  21009533.719 7  82445877.399 7        41.000
  20224350.500 9 106279738.574 9        51.400    20224356.746 9  82815393.97949
        55.600    20224356.17649  20224353.203 7  79364681.728 7        43.400
 21 12 14  0 48 30.0000000  0  8G16G21G08G26G18G23G10G27
  22269354.016 8 117026265.714 8        46.100                    91189285.85049
        35.800    22269357.43849
  22706974.500 7 119325976.275 7        44.700                    92981299.18848
        31.400    22706977.69548
  21025912.086 9 110491921.359 9        49.300    21025918.613 9  86097649.53349
        54.500    21025917.60949  21025914.426 7  82510197.441 7        41.600
  24893912.711 5 130818383.117 5        37.200    24893921.293 6 101936435.51648
        32.800    24893920.68848
  24581943.570 4 129178988.23114        34.800    24581949.383 6 100658976.82755
        19.000    24581948.09445
  22131899.305 8 116303932.154 8        45.300    22131903.566 8  90626456.91349
        35.600    22131903.18049  22131904.500 5  86850359.471 5        37.500
  21009185.086 9 110404018.584 9        53.900    21009191.371 9  86029143.93249
        55.000    21009191.34449  21009187.461 7  82444517.684 7        41.700
  20225901.242 9 106287887.987 9        52.200    20225907.715 9  82821744.15549
        55.600    20225906.91449  20225904.004 7  79370767.309 7        43.400
 21 12 14  0 49  0.0000000  0  9G16G21G32G08G26G18G23G10G27
  22286976.242 8 117118871.042 8        46.200                    91261445.83849
        36.500    22286979.65649
  22694125.039 7 119258452.758 7        44.900                    92928683.50648
        30.900    22694128.43048
  25291206.984 5 132906188.96315        35.000    25291215.902 6 103563307.80458
        31.000    25291215.21148
  21015689.141 9 110438200.287 9        49.000    21015695.910 9  86055788.95849
        54.600    21015695.02749  21015691.590 7  82470081.057 7        41.200
  24915170.594 5 130930097.834 5        35.500    24915179.703 6 102023485.88147
        29.200    24915179.31347
  24600456.555 4 129276277.007 4        34.900    24600462.758 6 100734786.27545
        17.400    24600462.18045
  22144610.328 7 116370732.850 7        44.700    22144615.559 8  90678509.40549
        35.800    22144614.89549  22144615.801 5  86900243.106 5        37.200
  21008947.086 9 110402767.878 9        53.500    21008953.602 9  86028169.35949
        54.900    21008953.42649  21008948.996 7  82443583.714 7        41.800
  20227536.602 9 106296482.731 9        51.200    20227543.023 9  82828441.35949
        55.000    20227542.44949  20227539.430 7  79377185.448 7        43.600
 21 12 14  0 49 30.0000000  0  9G16G21G32G08G26G18G23G10G27
  22304662.695 8 117211812.543 8        46.600                    91333867.77149
        36.800    22304665.90249
  22681318.227 7 119191152.309 7        43.700                    92876241.61548
        31.800    22681321.70748
  25273740.219 6 132814394.46016        38.100    25273747.102 6 103491779.63058
        32.800    25273746.86348
  21005529.867 9 110384814.176 9        49.100    21005536.801 9  86014189.39649
        54.800    21005535.78949  21005532.738 7  82430214.779 7        41.300
  24936426.031 5 131041791.383 5        36.100    24936432.121 4 102110519.82847
        26.500    24936432.50847  24936430.750 2  97855878.59312        31.200
  24618973.719 4 129373582.20514        34.800    24618979.246 6 100810608.45755
        18.600    24618978.89145
  22157407.898 8 116437982.488 8        46.000    22157412.371 8  90730911.70949
        36.400    22157412.39149  22157413.602 5  86950461.994 5        37.300
  21008817.922 9 110402088.673 9        53.800    21008824.242 9  86027640.12149
        55.200    21008824.05149  21008819.520 7  82443076.538 7        41.500
  20229257.500 9 106305524.872 9        52.200    20229263.652 9  82835487.17549
        55.300    20229263.10549  20229260.215 7  79383937.696 7        43.200
 21 12 14  0 50  0.0000000  0  9G16G21G32G08G26G18G23G10G27
  22322412.531 8 117305087.959 8        46.100                    91406549.90549
        36.300    22322415.69949
  22668554.055 8 119124074.880 8        45.000                    92823973.54448
        31.500    22668556.90648
  25256265.336 2 132722576.27112        31.800    25256274.387 5 103420232.95956
        24.900    25256274.01246
  20995434.953 9 110331764.822 9        49.100    20995441.906 9  85972852.22949
        54.600    20995441.02049  20995437.766 7  82390600.024 7        41.400
  24957676.977 5 131153461.073 5        37.600    24957683.863 5 102197535.24548
        31.500    24957683.33648  24957680.047 1  97939268.29511        28.800
  24637491.820 5 129470902.648 5        36.100    24637498.176 5 100886442.48645
        17.800    24637497.81645
  22170289.750 8 116505678.506 8        45.300    22170294.707 8  90783661.85249
        35.700    22170294.19149  22170295.117 5  87001014.179 5        37.600
  21008797.414 9 110401980.450 9        53.900    21008803.688 9  86027555.80049
        55.100    21008803.43449  21008799.137 7  82442995.723 7        41.800
  20231063.219 9 106315014.657 9        52.100    20231069.578 9  82842881.80449
        55.200    20231068.93049  20231065.945 7  79391024.222 7        43.200
 21 12 14  0 50 30.0000000  0  9G16G21G32G08G26G18G23G10G27
  22340225.250 8 117398693.936 8        46.100                    91479489.61249
        35.900    22340228.10249
  22655831.930 8 119057220.030 8        45.200                    92771878.87648
        31.900    22655835.28148
  25238792.477 6 132630736.191 6        38.300    25238795.746 3 103348669.21547
        29.100    25238794.40647
  20985404.320 9 110279052.725 9        49.400    20985411.148 9  85931777.87249
        54.700    20985410.23049  20985407.156 7  82351237.082 7        41.600
  24978919.672 2 131265104.017 2        31.500    24978928.883 6 102284529.62547
        27.100    24978928.69947
  24656015.680 5 129568236.695 5        36.300    24656019.578 5 100962287.19745
        17.800    24656020.06645
  22183256.656 8 116573817.780 8        45.500    22183260.910 8  90836757.38749
        36.500    22183260.34049  22183261.820 5  87051897.428 5        37.100
  21008885.414 9 110402442.097 9        53.400    21008891.430 9  86027915.53249
        55.000    21008891.38749  21008887.184 7  82443340.467 7        41.700
  20232954.352 9 106324951.684 9        51.800    20232960.730 9  82850624.93349
        55.300    20232960.04749  20232956.859 7  79398444.719 7        43.300
 21 12 14  0 51  0.0000000  0  9G16G21G32G08G26G18G23G10G27
  22358100.039 8 117492628.554 8        45.600                    91552685.41049
        36.000    22358103.32049
  22643152.633 7 118990588.855 7        44.800                    92719958.50148
        30.700    22643155.13348
  25221307.773 2 132538878.009 2        31.800    25221317.395 5 103277091.33947
        25.600    25221315.23047
  20975437.938 9 110226680.690 9        48.900    20975445.383 9  85890968.50149
        54.700    20975444.19149  20975441.051 7  82312128.100 7        41.400
  25000160.781 5 131376718.668 5        37.600    25000167.547 5 102371502.11547
        29.400    25000166.82047
  24674539.414 5 129665584.183 5        35.500    24674545.578 5 101038142.38745
        18.600    24674543.78145
  22196307.344 8 116642398.811 8        45.600    22196311.621 8  90890197.15849
        35.600    22196310.99649  22196312.570 6  87103110.540 6        38.000
  21009081.602 9 110403474.066 9        54.000    21009087.801 9  86028719.66949
        55.000    21009087.64149  21009083.633 7  82444111.122 7        41.300
  20234930.820 9 106335337.177 9        52.100    20234936.719 9  82858717.51449
        55.000    20234936.37949  20234933.313 7  79406200.103 7        43.500
 21 12 14  0 51 30.0000000  0  9G16G21G32G08G26G18G23G10G27
  22376036.969 8 117586887.990 8        45.800                    91626134.31249
        35.700    22376040.36749
  22630515.906 8 118924180.683 8        45.500                    92668211.88948
        31.800    22630518.56648
  25203828.727 6 132447003.723 6        39.100    25203836.090 6 103205501.05449
        34.400    25203834.59449
  20965536.906 9 110174649.203 9        49.200    20965543.801 9  85850424.48549
        54.800    20965542.91849  20965539.715 7  82273273.446 7        41.100
  25021393.930 4 131488301.680 4        34.300    25021401.059 5 102458450.01347
        26.500    25021401.22747  25021398.410 1  98189297.65411        30.800
  24693067.250 5 129762943.380 5        35.600    24693072.520 6 101114006.61445
        19.600    24693071.53145
  22209441.227 8 116711418.419 8        45.300    22209445.387 8  90943978.65949
        34.600    22209445.12549  22209446.801 5  87154651.134 5        37.000
  21009386.508 9 110405075.167 9        53.700    21009392.551 9  86029967.29449
        54.900    21009392.46149  21009388.066 7  82445306.739 7        41.400
  20236992.102 9 106346170.679 9        51.800    20236998.406 9  82867159.20049
        55.500    20236997.97749  20236994.809 7  79414290.065 7        43.700
 21 12 14  0 52  0.0000000  0  9G16G21G32G08G26G18G23G10G27
  22394035.938 8 117681470.629 8        45.500                    91699835.04949
        35.100    22394038.69949
  22617920.602 8 118857996.211 8        45.100                    92616639.60648
        31.600    22617924.23048
  25186337.906 1 132355116.443 1        29.900    25186350.043 6 103133900.57247
        27.900    25186349.25447
  20955700.430 9 110122959.886 9        49.200    20955707.867 9  85810147.09749
        54.700    20955706.67649  20955703.539 7  82234674.284 7        41.500
  25042620.641 4 131599851.481 4        34.200    25042629.613 6 102545371.85847
        29.500    25042628.96147  25042624.262 1  98272597.69411        27.400
  24711595.594 5 129860313.737 5        35.200    24711600.973 6 101189879.57145
        19.000    24711600.02045
  22222658.688 8 116780874.557 8        45.400    22222662.688 8  90998100.31649
        36.100    22222662.18049  22222663.555 5  87206517.704 5        37.000
  21009799.547 9 110407245.316 9        53.200    21009805.613 9  86031658.32849
        55.000    21009805.44949  21009801.074 7  82446927.325 7        41.900
  20239139.133 9 106357452.960 9        51.800    20239145.395 9  82875950.58349
        55.100    20239144.86349  20239141.707 7  79422715.112 7        43.800
 21 12 14  0 52 30.0000000  0  9G16G21G32G08G26G18G23G10G27
  22412094.953 8 117776373.632 8        46.000                    91773785.42949
        35.500    22412098.24649
  22605368.727 8 118792036.121 8        45.200                    92565242.15748
        31.600    22605372.69948
  25168856.758 6 132263219.45916        39.800    25168860.406 3 103062292.49958
        31.200    25168858.28548
  20945930.492 9 110071616.009 9        49.200    20945937.199 9  85770138.88649
        54.800    20945936.10249  20945933.051 7  82196333.090 7        41.600
  25063843.227 6 131711365.990 6        38.300    25063849.719 6 102632266.21348
        32.600    25063849.72348
  24730127.172 5 129957694.958 5        36.100    24730131.777 5 101265760.99345
        18.300    24730131.13345
  22235957.742 8 116850765.478 8        45.400    22235962.223 8  91052560.77949
        35.800    22235962.09449  22235962.766 5  87258709.007 5        36.300
  21010320.555 9 110409984.747 9        52.700    21010326.891 9  86033792.95749
        55.000    21010326.68849  21010322.504 7  82448973.005 7        41.800
  20241371.578 9 106369184.974 9        51.700    20241377.859 9  82885092.40449
        55.400    20241377.36749  20241374.207 7  79431476.040 7        43.400
 21 12 14  0 53  0.0000000  0  9G16G21G32G08G26G18G23G10G27
  22430214.625 8 117871593.987 8        45.500                    91847983.09849
        36.000    22430218.24649
  22592859.484 8 118726299.365 8        45.300                    92514018.73648
        32.200    22592863.02048
  25151364.539 5 132171314.719 5        36.100    25151371.262 3 102990678.43247
        27.300    25151369.35547
  20936225.734 9 110020617.214 9        49.800    20936232.637 9  85730399.56249
        55.000    20936231.40249  20936228.305 7  82158249.550 7        41.700
  25085056.195 5 131822842.092 5        37.000    25085062.180 3 102719130.74647
        27.000    25085061.48847
  24748659.523 5 130055085.275 5        36.200    24748664.781 5 101341649.54945
        19.000    24748663.66845
  22249340.344 8 116921087.848 8        45.000    22249344.527 8  91107357.42449
        36.100    22249343.98849  22249345.219 5  87311222.444 5        36.900
  21010950.094 9 110413292.035 9        52.700    21010956.266 9  86036370.07149
        55.100    21010955.98849  21010951.848 7  82451442.745 7        41.700
  20243689.641 9 106381366.097 9        51.800    20243695.977 9  82894584.18349
        55.200    20243695.22349  20243692.270 7  79440572.329 7        43.100
 21 12 14  0 53 30.0000000  0  9G16G21G32G08G26G18G23G10G27
  22448394.484 8 117967129.554 8        45.600                    91922426.39049
        35.700    22448398.05949
  22580393.023 8 118660786.487 8        45.300                    92462969.76448
        32.000    22580396.42648
  25133874.477 5 132079405.332 5        37.600    25133883.191 6 102919060.64148
        31.700    25133884.27748
  20926586.781 9 109969965.857 9        49.300    20926594.102 9  85690930.96949
        54.900    20926592.75049  20926589.543 7  82120425.508 7        41.400
  25106260.570 4 131934277.837 4        34.600    25106267.777 5 102805963.83047
        25.600    25106267.18447  25106265.117 2  98522333.64112        31.200
  24767193.969 4 130152483.835 4        34.600    24767199.168 6 101417544.53545
        19.300    24767198.08245
  22262803.430 8 116991839.455 8        45.000    22262808.027 8  91162488.53949
        35.000    22262807.51649  22262808.824 5  87364056.471 5        37.400
  21011687.461 9 110417166.925 9        52.400    21011693.535 9  86039389.47349
        54.900    21011693.50449  21011689.293 7  82454336.335 7        41.500
  20246093.070 9 106393996.922 9        51.600    20246099.453 9  82904426.37649
        55.100    20246098.91849  20246095.695 7  79450004.426 7        43.200
 21 12 14  0 54  0.0000000  0 10G16G01G21G32G08G26G18G23G10G27
  22466633.664 8 118062977.414 8        45.800                    91997113.01349
        35.500    22466637.32449
  24858332.289 3 130631445.58713        33.200    24858341.895 5 101790750.44555
        16.900    24858340.88745
  22567969.164 7 118595498.288 7        44.600                    92412095.87948
        32.400    22567972.80948
  25116388.156 6 131987494.461 6        39.800    25116394.465 6 102847441.83349
        34.200    25116394.54349
  20917014.719 9 109919663.968 9        49.200    20917021.813 9  85651734.69649
        54.700    20917020.53149  20917017.293 7  82082862.400 7        41.700
  25127458.711 6 132045671.156 6        38.800    25127466.254 6 102892763.78449
        34.300    25127466.24249  25127460.449 1  98605516.95811        25.600
  24785729.305 4 130249890.474 4        34.300    24785735.348 6 101493445.73045
        19.300    24785734.89545
  22276348.531 7 117063018.485 7        44.700    22276352.660 8  91217952.71749
        34.900    22276352.56349  22276353.668 5  87417209.592 5        37.200
  21012532.547 9 110421609.479 9        53.000    21012539.105 9  86042851.21049
        55.000    21012538.82449  21012534.723 7  82457653.842 7        41.600
  20248582.273 9 106407078.281 9        52.400    20248588.934 9  82914619.63449
        55.000    20248588.17649  20248585.273 7  79459772.968 7        43.600
 21 12 14  0 54 30.0000000  0 10G16G01G21G32G08G26G18G23G10G27
  22484932.211 8 118159134.805 8        45.200                    92072040.82949
        35.000    22484935.43449
  24838659.070 5 130528060.468 5        35.000    24838668.398 5 101710190.58245
        17.400    24838667.34045
  22555587.734 8 118530434.407 8        45.700                    92361396.77448
        32.400    22555591.35948
  25098894.172 4 131895584.410 4        34.300    25098903.102 5 102775823.62647
        28.400    25098901.29747
  20907509.016 9 109869712.176 9        49.400    20907516.359 9  85612811.21949
        55.300    20907515.12949  20907511.590 7  82045560.728 7        41.300
  25148647.266 4 132157019.347 4        34.200    25148654.609 5 102979528.59947
        26.800    25148654.41047
  24804267.797 5 130347303.534 5        35.800    24804272.547 6 101569351.95445
        19.300    24804272.00845
  22289973.891 7 117134621.882 7        44.400    22289978.637 8  91273747.56749
        34.600    22289978.11349  22289979.234 5  87470679.662 5        37.300
  21013485.734 9 110426618.578 9        53.700    21013492.191 9  86046754.40949
        55.100    21013492.18049  21013487.859 7  82461394.410 7        41.600
  20251157.375 9 106420609.918 9        52.200    20251163.895 9  82925163.76349
        54.900    20251163.14149  20251160.102 7  79469877.771 7        43.400
 21 12 14  0 55  0.0000000  0 10G16G01G21G32G08G26G18G23G10G27
  22503288.703 8 118255599.231 8        45.800                    92147207.90649
        35.300    22503291.89849
  24819001.320 5 130424758.896 5        35.800    24819010.504 5 101629695.84345
        19.600    24819010.05145
  22543249.438 8 118465595.410 8        45.200                    92310872.89948
        32.700    22543252.59848
  25081406.148 5 131803678.624 5        36.500    25081414.496 5 102704208.67448
        30.300    25081412.25448
  20898070.898 9 109820112.886 9        49.200    20898077.879 9  85574162.41949
        55.200    20898076.60249  20898073.359 7  82008522.289 7        42.000
  25169826.406 4 132268320.761 4        34.700    25169830.984 1 103066257.00446
        21.100    25169831.83246  25169831.129 2  98771784.36512        31.200
  24822805.141 4 130444722.85314        34.900    24822811.004 6 101645263.11055
        19.000    24822809.95745
  22303679.945 7 117206647.787 7        44.500    22303684.918 8  91329871.64749
        34.700    22303683.85249  22303685.344 5  87524465.264 5        36.400
  21014546.977 9 110432194.195 9        53.800    21014553.285 9  86051099.05049
        54.900    21014553.09049  21014548.828 7  82465558.023 7        41.600
  20253818.523 9 106434592.656 9        51.700    20253824.711 9  82936059.39749
        55.000    20253824.11749  20253821.059 7  79480319.388 7        43.700
 21 12 14  0 55 30.0000000  0 11G16G01G21G32G08G26G18G23G07G10G27
  22521703.148 8 118352368.432 8        45.400                    92222612.46649
        35.100    22521706.56649
  24799360.203 4 130321541.254 4        34.300    24799369.254 5 101549266.47545
        18.300    24799369.49645
  22530953.922 8 118400981.170 8        46.200                    92260524.17548
        32.500    22530956.53148
  25063920.656 6 131711779.461 6        40.400    25063925.270 5 102632598.93848
        32.300    25063924.35248
  20888699.555 9 109770867.203 9        49.500    20888706.723 9  85535789.15949
        55.200    20888705.58249  20888702.285 7  81971747.921 7        41.500
  25190998.547 6 132379572.469 6        39.800    25191005.902 6 103152946.72448
        33.500    25191005.32848  25191001.391 1  98854861.924 1        29.500
  24841344.930 5 130542147.05215        35.000    24841349.477 5 101721178.02455
        18.600    24841349.26245
  22317465.797 7 117279093.412 7        44.700    22317470.805 8  91386322.78649
        34.800    22317470.03949  22317471.465 5  87578564.250 5        36.600
  25032435.086 1                        26.800

  21015715.445 9 110438335.448 9        53.400    21015721.813 9  86055884.44849
        54.900    21015721.62549  21015717.492 7  82470144.021 7        41.800
  20256564.945 9 106449026.435 9        52.300    20256571.340 9  82947306.48849
        54.900    20256570.69549  20256567.531 7  79491097.870 7        43.200
 21 12 14  0 56  0.0000000  0 10G16G01G21G32G08G26G18G23G10G27
  22540175.047 8 118449439.247 8        45.300                    92298252.04549
        34.800    22540178.61349
  24779735.281 5 130218408.576 5        35.000    24779744.348 5 101468903.38745
        19.000    24779743.55145
  22518700.578 8 118336591.961 8        46.500                    92210350.77448
        33.100    22518704.11748
  25046433.219 6 131619889.848 6        38.700    25046438.766 3 102560996.60047
        29.800    25046436.83247
  20879396.094 9 109721976.788 9        49.100    20879403.203 9  85497692.73949
        55.300    20879402.12149  20879398.898 6  81935238.841 6        40.900
  25212156.023 2 132490772.574 2        31.500    25212166.500 6 103239596.02047
        27.000    25212166.14547
  24859883.398 3 130639575.51213        33.500    24859890.145 6 101797096.29955
        17.800    24859889.08245
  22331331.797 7 117351956.409 7        44.700    22331336.418 8  91443099.13949
        35.400    22331335.58249  22331336.754 5  87632974.944 5        36.600
  21016991.805 9 110445041.882 9        53.700    21016997.789 9  86061110.24849
        54.900    21016997.84049  21016993.738 7  82475152.099 7        41.600
  20259397.547 9 106463911.658 9        52.500    20259403.730 9  82958905.36149
        55.100    20259403.31349  20259400.387 7  79502213.460 7        43.400
 21 12 14  0 56 30.0000000  0 10G16G01G21G32G08G26G18G23G10G27
  22558703.852 8 118546809.376 8        45.700                    92374124.86749
        34.500    22558707.67649
  24760125.891 5 130115362.027 5        35.900    24760134.781 5 101388607.36645
        18.600    24760134.41845
  22506490.547 8 118272428.079 8        45.800                    92160352.95448
        31.700    22506493.42648
  25028949.688 5 131528012.996 5        36.600    25028955.609 5 102489404.25148
        30.000    25028955.28948
  20870160.797 9 109673443.876 9        49.800    20870167.449 9  85459874.89149
        55.400    20870166.52349  20870163.266 7  81898996.758 7        41.800
  25233308.633 5 132601918.957 5        37.300    25233316.512 3 103326203.51747
        26.800    25233316.27747
  24878425.406 5 130737007.51815        35.100    24878430.363 5 101873017.30055
        18.300    24878429.27045
  22345275.859 7 117425234.639 7        44.400    22345280.434 8  91500199.05749
        34.200    22345279.84449  22345281.336 5  87687695.691 5        37.200
  21018375.227 9 110452313.167 9        53.100    21018381.598 9  86066776.18649
        54.900    21018381.35949  21018377.316 7  82480581.950 7        41.600
  20262316.156 9 106479248.866 9        52.100    20262322.445 9  82970856.41949
        55.000    20262321.86749  20262318.891 7  79513666.564 7        43.700
 21 12 14  0 57  0.0000000  0 10G16G01G21G32G08G26G18G23G10G27
  22577289.352 8 118644475.285 8        45.200                    92450228.15049
        34.700    22577292.85249
  24740531.719 3 130012402.262 3        33.200    24740542.000 5 101308378.95045
        18.300    24740541.38345
  22494323.039 8 118208489.245 8        46.100                    92110530.50248
        32.300    22494326.43448
  25011468.094 5 131436151.387 5        35.700    25011475.070 5 102417823.83348
        30.700    25011475.25448
  20860993.344 9 109625269.162 9        49.300    20861000.211 9  85422336.15049
        55.000    20860999.04749  20860995.770 7  81863022.132 7        41.400
  25254449.266 5 132713008.944 5        36.700    25254454.980 5 103412767.38447
        27.700    25254455.34847
  24896964.984 5 130834442.020 5        35.200    24896971.977 5 101948940.27945
        18.300    24896971.14145
  22359298.852 7 117498925.429 7        44.000    22359303.535 8  91557620.45349
        34.400    22359302.64549  22359304.066 5  87742724.532 5        37.100
  21019866.344 9 110460148.429 9        52.300    21019872.805 9  86072881.59849
        54.900    21019872.36749  21019868.277 7  82486432.975 7        41.300
  20265320.938 9 106495038.105 9        52.900    20265326.977 9  82983159.71749
        54.900    20265326.54749  20265323.398 7  79525457.208 7        43.500
 21 12 14  0 57 30.0000000  0 10G16G01G21G32G08G26G18G23G10G27
  22595930.484 8 118742434.827 8        45.700                    92526560.24249
        34.600    22595933.88349
  24720957.156 4 129909529.93514        34.400    24720966.035 5 101228218.74555
        19.000    24720965.62945
  22482199.344 8 118144776.252 8        45.600                    92060884.03348
        33.000    22482202.75848
  24993991.875 6 131344308.037 6        39.400    24993998.098 5 102346257.55048
        31.400    24993997.89148
  20851894.484 9 109577454.557 9        49.500    20851901.492 9  85385078.01249
        55.000    20851900.22749  20851897.043 7  81827316.424 7        41.100
  25275576.039 3 132824040.66413        32.600    25275584.484 5 103499285.42757
        25.600    25275584.37147
  24915508.313 4 130931878.168 4        34.600    24915513.496 5 102024864.54645
        18.300    24915512.01645
  22373399.711 7 117573026.302 7        44.100    22373404.441 8  91615361.39249
        34.000    22373403.72349  22373404.879 5  87798059.585 5        36.900
  21021464.594 9 110468546.982 9        53.000    21021470.641 9  86079425.92849
        55.000    21021470.62949  21021466.332 7  82492704.605 7        41.300
  20268411.391 9 106511279.592 9        51.900    20268417.945 9  82995815.41249
        55.200    20268417.09449  20268414.156 7  79537585.591 7        43.400
 21 12 14  0 58  0.0000000  0 10G16G01G21G32G08G26G18G23G10G27
  22614626.805 8 118840685.390 8        45.200                    92603119.11049
        34.000    22614630.21949
  24701397.406 5 129806745.43015        35.400    24701406.102 4 101148126.92455
        17.800    24701406.47345
  22470117.969 8 118081288.643 8        45.300                    92011413.18748
        33.200    22470121.17248
  24976518.016 6 131252485.074 6        38.700    24976525.070 5 102274707.15048
        31.000    24976524.76648
  20842864.383 9 109530001.145 9        49.400    20842871.551 9  85348101.32949
        55.000    20842870.25049  20842867.254 7  81791880.436 7        41.700
  25296693.891 5 132935010.705 5        36.700    25296701.945 5 103585755.62947
        29.300    25296701.71547
  24934050.820 5 131029314.44815        35.700    24934055.832 5 102100788.86055
        17.400    24934053.60945
  22387578.078 7 117647534.187 7        44.500    22387582.652 8  91673419.48749
        34.100    22387582.13349  22387583.305 5  87853698.588 5        36.500
  21023169.734 9 110477507.597 9        51.900    21023175.969 9  86086408.23549
        54.900    21023175.72749  21023171.547 7  82499395.985 7        41.700
  20271588.047 9 106527972.924 9        51.500    20271594.359 9  83008823.19349
        54.900    20271593.75849  20271590.820 7  79550051.377 7        42.900
 21 12 14  0 58 30.0000000  0 10G16G01G21G32G08G26G18G23G10G27
  22633377.961 7 118939224.284 7        44.900                    92679902.66049
        34.300    22633381.39549
  24681855.781 5 129704050.464 5        37.100    24681864.238 5 101068104.84445
        19.000    24681863.84845
  22458079.414 8 118018026.809 8        46.100                    91962118.26648
        33.600    22458082.89148
  24959049.438 6 131160686.219 6        38.400    24959055.805 5 102203175.54348
        30.000    24959054.80548
  20833903.500 9 109482911.325 9        49.500    20833910.500 9  85311407.95749
        54.900    20833909.52749  20833906.227 7  81756715.963 7        41.600
  25317795.547 1 133045918.042 1        30.700    25317806.871 5 103672177.02546
        22.300    25317805.83646
  24952592.477 5 131126751.117 5        36.900    24952596.754 5 102176713.49545
        16.900    24952595.73445
  22401833.258 7 117722447.554 7        44.300    22401838.125 8  91731793.53248
        33.700    22401837.44548  22401838.734 5  87909640.396 5        36.200
  21024981.859 9 110487030.517 9        52.300    21024987.984 9  86093828.69849
        55.000    21024987.87949  21024983.625 7  82506507.276 7        41.600
  20274851.102 9 106545119.306 9        53.200    20274857.234 9  83022184.00849
        54.900    20274856.60249  20274853.465 7  79562855.478 7        43.300
 21 12 14  0 59  0.0000000  0 10G16G01G21G32G08G26G18G23G10G27
  22652183.500 8 119038048.220 8        45.600                    92756908.31548
        33.800    22652187.43448
  24662331.023 5 129601445.497 5        35.700    24662340.094 6 100988152.93246
        20.400    24662340.00046
  22446084.633 8 117954991.040 8        45.500                    91912999.51548
        33.300    22446087.87948
  24941585.445 5 131068914.005 5        35.500    24941592.402 5 102131664.73947
        29.900    24941591.84047
  20825012.055 9 109436186.495 9        49.500    20825019.133 9  85274998.99449
        55.700    20825018.11349  20825014.934 7  81721824.032 7        41.700
  25338892.992 5 133156760.17515        35.500    25338898.473 5 103758547.53257
        28.900    25338897.87547  25338896.023 1  99435235.39911        29.800
  24971132.445 5 131224186.867 5        35.700    24971137.992 5 102252637.46445
        16.300    24971137.01245
  22416165.742 7 117797763.519 7        44.300    22416170.586 8  91790481.29348
        33.900    22416169.59448  22416170.629 5  87965882.822 5        35.900
  21026900.898 9 110497114.676 9        52.200    21026907.227 9  86101686.49349
        55.000    21026906.74649  21026902.484 7  82514037.660 7        41.400
  20278199.844 9 106562718.594 9        51.900    20278206.484 9  83035897.72449
        55.000    20278205.68049  20278202.770 7  79575997.790 7        43.000
 21 12 14  0 59 30.0000000  0  9G16G01G21G32G08G18G23G10G27
  22671043.227 8 119137155.475 8        45.100                    92834134.72348
        33.700    22671047.03948
  24642823.664 5 129498931.857 5        37.800    24642832.016 6 100908272.23346
        22.500    24642831.78946
  22434132.133 8 117892181.728 8        45.300                    91864057.20448
        33.600    22434135.25848
  24924128.273 6 130977171.778 6        40.500    24924134.652 5 102060177.23648
        31.900    24924133.52048
  20816190.492 9 109389828.313 9        49.600    20816197.422 9  85238875.73649
        55.500    20816196.37149  20816193.402 7  81687205.906 7        42.200
  24989674.234 5 131321621.217 5        35.500    24989679.027 5 102328560.23345
        18.300    24989678.94545
  22430574.367 7 117873480.021 7        44.400    22430578.863 8  91849481.15849
        34.200    22430578.28949  22430578.965 5  88022424.383 5        35.700
  21028926.445 9 110507759.710 9        52.100    21028932.824 9  86109981.32949
        55.000    21028932.57449  21028928.227 7  82521986.874 7        41.100
  20281634.883 9 106580771.343 9        51.400    20281641.500 9  83049964.79649
        55.000    20281640.98049  20281637.984 7  79589478.735 7        43.300
 21 12 14  1  0  0.0000000  0  9G16G01G21G32G08G18G23G10G27
  22689955.945 7 119236542.932 7        44.700                    92911579.48349
        34.200    22689959.54349
  24623331.922 5 129396509.754 5        35.600    24623341.707 6 100828462.79146
        20.600    24623341.16446
  22422223.078 8 117829598.455 8        46.500                    91815291.03149
        34.200    22422226.43049
  24906676.359 6 130885461.711 6        39.700    24906682.758 5 101988714.87948
        32.500    24906681.77348
  20807438.844 9 109343837.839 9        49.600    20807445.770 9  85203039.00249
        55.200    20807444.73049  20807441.715 7  81652862.386 7        42.100
  25008215.070 6 131419052.822 6        38.100    25008220.758 5 102404480.92145
        17.800    25008219.23845
  22445058.492 7 117949594.056 7        43.700    22445062.797 8  91908790.79349
        34.300    22445062.42249  22445063.395 5  88079262.782 5        36.800
  21031058.672 9 110518964.336 9        52.100    21031064.746 9  86118712.21549
        55.000    21031064.77049  21031060.211 7  82530353.991 7        41.800
  20285156.836 9 106599277.238 9        52.300    20285163.074 9  83064384.96349
        55.000    20285162.63349  20285160.043 7  79603298.070 7        43.600
 21 12 14  1  0 30.0000000  0  9G16G01G21G32G08G18G23G10G27
  22708921.445 7 119336207.757 7        44.500                    92989240.36748
        33.100    22708925.00448
  24603859.242 5 129294180.323 5        35.700    24603868.848 6 100748725.62445
        19.900    24603868.55545
  22410356.781 8 117767241.492 8        46.000                    91766701.20749
        34.400    22410360.21949
  24889230.109 5 130793787.096 5        36.600    24889237.895 5 101917280.07248
        30.600    24889236.40248
  20798757.195 9 109298217.172 9        49.600    20798764.527 9  85167490.42749
        55.600    20798763.48849  20798760.254 7  81618794.984 7        41.700
  25026754.953 5 131516481.217 5        37.700    25026759.426 5 102480399.11845
        19.300    25026759.71545
  22459617.297 7 118026103.420 7        43.400    22459621.820 7  91968408.47348
        33.000    22459621.36748  22459622.793 5  88136396.369 5        36.300
  21033297.156 9 110530728.117 9        51.800    21033303.520 9  86127878.80349
        55.000    21033303.31349  21033298.551 7  82539138.631 7        41.700
  20288764.625 9 106618236.741 9        52.500    20288771.086 9  83079158.58649
        55.100    20288770.46149  20288767.605 7  79617456.107 7        43.900
 21 12 14  1  1  0.0000000  0  9G16G01G21G32G08G18G23G10G27
  22727939.219 8 119436147.320 8        45.200                    93067115.35348
        33.100    22727942.96148
  24584405.039 5 129191944.381 5        35.400    24584414.059 6 100669061.27345
        19.900    24584413.66045
  22398533.727 8 117705110.884 8        45.600                    91718287.77448
        33.300    22398537.24648
  24871791.750 5 130702150.691 5        36.700    24871799.906 5 101845875.06748
        30.200    24871798.03148
  20790146.844 9 109252967.504 9        49.800    20790153.719 9  85132230.94949
        55.400    20790152.63349  20790149.609 7  81585004.660 7        42.600
  25045294.383 5 131613905.575 5        36.900    25045299.109 5 102556314.15845
        17.400    25045298.53545
  22474251.828 7 118103005.546 7        44.200    22474256.164 8  92028332.21149
        34.400    22474255.51649  22474256.980 5  88193823.292 5        36.900
  21035641.961 9 110543050.210 9        51.800    21035648.203 9  86137480.44549
        54.900    21035648.10249  21035644.191 7  82548340.210 7        41.600
  20292458.930 9 106637650.003 9        52.800    20292465.254 9  83094285.79649
        55.000    20292464.56649  20292461.738 7  79631953.023 7        43.100
 21 12 14  1  1 30.0000000  0  9G16G01G21G32G08G18G23G10G27
  22747008.789 7 119536358.595 7        44.600                    93145202.04048
        32.900    22747012.45748
  24564968.586 5 129089802.941 5        36.600    24564977.184 5 100589470.63546
        21.100    24564976.66446
  22386754.164 8 117643206.672 8        46.400                    91670050.73548
        33.400    22386756.80148
  24854362.336 6 130610555.599 6        38.600    24854370.020 6 101774502.25148
        32.400    24854369.92248
  20781607.016 9 109208090.805 9        49.900    20781614.035 9  85097262.09549
        55.600    20781612.70749  20781609.738 7  81551492.857 7        42.100
  25063831.711 4 131711325.138 4        34.800    25063836.797 5 102632225.49345
        16.900    25063836.82845
  22488959.570 7 118180298.139 7        43.800    22488964.227 8  92088560.20148
        33.600    22488963.50448  22488964.938 5  88251541.760 5        36.700
  21038092.789 9 110555929.967 9        52.400    21038098.910 9  86147516.62449
        54.900    21038098.93849  21038094.590 7  82557958.222 7        41.600
  20296239.414 9 106657517.328 9        52.800    20296246.008 9  83109766.81949
        55.100    20296245.26649  20296242.363 7  79646789.005 7        43.200
 21 12 14  1  2  0.0000000  0  9G16G01G21G32G08G18G23G10G27
  22766130.133 8 119636838.995 8        45.300                    93223498.45348
        33.000    22766133.62548
  24545548.836 5 128987756.409 5        35.200    24545557.934 6 100509953.86446
        20.400    24545557.99646
  22375016.984 8 117581529.078 8        46.600                    91621990.29548
        33.600    22375020.18448
  24836941.680 6 130519004.212 6        39.400    24836948.590 6 101703163.48748
        32.600    24836948.04348
  20773138.570 9 109163588.136 9        50.000    20773145.145 9  85062584.68549
        55.000    20773144.10949  20773141.156 7  81518260.329 7        41.800
  25082369.211 4 131808738.853 4        34.900    25082374.684 5 102708132.21145
        16.900    25082374.10945
  22503741.492 7 118257978.232 7        43.700    22503746.313 8  92149090.14148
        33.400    22503745.61348  22503747.102 5  88309549.629 5        35.700
  21040649.875 9 110569366.104 9        52.300    21040655.816 9  86157986.34649
        55.000    21040655.69149  21040651.633 7  82567991.702 7        41.200
  20300106.523 9 106677838.425 9        53.200    20300112.957 9  83125601.43849
        54.900    20300112.19149  20300109.320 7  79661963.835 7        43.800
 21 12 14  1  2 30.0000000  0  9G16G01G21G32G08G18G23G10G27
  22785301.422 7 119737586.522 7        44.700                    93302003.01248
        32.100    22785305.14148
  24526147.969 5 128885805.930 5        35.700    24526157.535 6 100430512.02446
        21.100    24526157.13746
  22363323.664 8 117520078.723 8        46.500                    91574106.91748
        33.900    22363326.54748
  24819529.086 6 130427499.776 6        38.400    24819535.438 5 101631861.38148
        31.400    24819535.05548
  20764741.422 9 109119461.276 9        50.000    20764748.086 9  85028200.11249
        55.300    20764747.22749  20764744.176 7  81485308.456 7        42.600
  25100905.570 5 131906146.083 5        37.100    25100910.746 5 102784034.01445
        17.800    25100909.93845
  22518597.148 7 118336043.688 7        44.000    22518601.945 8  92209920.35448
        33.300    22518601.34048  22518602.328 5  88367845.242 5        36.300
  21043312.352 9 110583358.190 9        52.900    21043318.438 9  86168889.27449
        54.900    21043318.30549  21043314.363 7  82578440.344 7        41.300
  20304059.922 9 106698613.807 9        53.000    20304066.250 9  83141790.02649
        55.100    20304065.65249  20304062.621 7  79677477.911 7        43.400
 21 12 14  1  3  0.0000000  0  8G16G01G21G32G08G23G10G27
  22804522.977 7 119838598.052 7        44.200                    93380713.27848
        32.400    22804526.77048
  24506766.117 5 128783952.991 5        35.000    24506775.746 5 100351146.15545
        18.600    24506774.45345
  22351672.977 8 117458855.727 8        45.800                    91526400.71648
        33.000    22351675.77048
  24802126.172 6 130336045.834 6        39.000    24802132.117 5 101560598.59848
        31.500    24802131.23848
  20756416.055 9 109075712.547 9        49.800    20756423.168 9  84994110.19449
        55.400    20756422.12949  20756419.035 7  81452638.957 7        41.600
  22533525.195 7 118414492.667 7        43.400    22533530.070 8  92271049.41548
        33.300    22533529.97748  22533530.789 5  88426427.272 5        36.800
  21046080.617 9 110597905.992 9        51.900    21046086.996 9  86180225.23549
        54.900    21046086.60249  21046082.453 7  82589303.958 7        41.300
  20308099.992 9 106719844.254 9        52.400    20308106.379 9  83158333.23049
        55.200    20308105.73049  20308102.832 7  79693331.791 7        43.100
 21 12 14  1  3 30.0000000  0  8G16G01G21G32G08G23G10G27
  22823795.141 7 119939870.776 7        44.000                    93459627.07348
        32.300    22823798.40248
  24487402.195 4 128682197.714 4        34.800    24487412.063 6 100271856.36145
        19.900    24487411.69145
  22340065.641 8 117397859.868 8        46.300                    91478871.48748
        33.900    22340068.48048
  24784732.891 6 130244644.662 6        39.900    24784740.633 5 101489376.83348
        32.800    24784737.56348
  20748163.070 9 109032342.484 9        49.900    20748170.184 9  84960315.34549
        55.600    20748169.10549  20748165.773 7  81420252.218 7        41.800
  22548526.258 7 118493321.817 7        43.700    22548530.527 8  92332474.71748
        33.000    22548529.95748  22548531.527 5  88485293.188 5        36.100
  21048954.375 9 110613007.810 9        52.300    21048960.832 9  86191992.89649
        55.000    21048960.64149  21048956.531 7  82600581.327 7        41.500
  20312226.445 9 106741529.101 9        52.700    20312232.715 9  83175230.50549
        55.000    20312232.24649  20312229.285 7  79709525.023 7        43.100
 21 12 14  1  4  0.0000000  0  8G16G01G21G32G08G23G10G27
  22843115.539 8 120041401.640 8        45.000                    93538742.01748
        31.800    22843119.14848
  24468059.000 5 128580541.002 5        35.800    24468067.383 6 100192643.37346
        21.300    24468067.18446
  22328502.000 8 117337091.596 8        46.400                    91431519.61048
        33.800    22328504.96548
  24767350.391 6 130153299.212 6        38.200    24767357.188 5 101418198.54048
        32.200    24767356.85548
  20739982.398 9 108989353.080 9        49.800    20739989.512 9  84926817.10049
        55.700    20739988.27349  20739985.250 7  81388149.743 7        42.100
  22563599.008 7 118572528.873 7        43.400    22563603.129 8  92394194.51548
        32.000    22563602.59848  22563604.230 5  88544441.314 5        35.400
  21051933.766 9 110628663.007 9        52.800    21051939.629 9  86204191.75049
        54.900    21051939.66449  21051935.695 7  82612271.896 7        41.400
  20316439.508 9 106763668.665 9        52.300    20316445.781 9  83192482.10649
        55.100    20316445.26649  20316442.172 7  79726057.815 7        43.800
 21 12 14  1  4 30.0000000  0  8G16G01G21G32G08G23G10G27
  22862484.742 7 120143187.729 7        44.800                    93618055.85248
        32.700    22862488.27748
  24448731.828 5 128478982.967 5        36.100    24448741.391 6 100113507.36246
        21.500    24448741.50046
  22316980.727 8 117276549.572 8        45.900                    91384344.03449
        34.200    22316984.43449
  24749977.797 5 130062011.503 5        37.300    24749985.566 5 101347065.26448
        30.900    24749984.89548
  20731874.461 9 108946744.989 9        50.000    20731881.613 9  84893615.99949
        55.600    20731880.31649  20731877.238 7  81356332.007 7        42.100
  22578742.398 7 118652110.426 7        42.500    22578747.332 8  92456206.10848
        32.200    22578746.62148  22578748.141 5  88603869.088 5        36.300
  21055017.602 9 110644869.707 9        52.400    21055023.855 9  86216820.35649
        54.900    21055023.48849  21055019.664 7  82624374.314 7        41.500
  20320738.789 9 106786262.135 9        52.700    20320745.219 9  83210087.39849
        55.000    20320744.69949  20320741.523 7  79742929.544 7        43.200
 21 12 14  1  5  0.0000000  0  8G16G01G21G32G08G23G10G27
  22881901.930 7 120245226.854 7        44.500                    93697566.85048
        32.200    22881905.79348
  24429425.766 4 128377525.26114        34.200    24429434.094 5 100034449.49355
        18.300    24429434.42645
  22305503.688 8 117216235.093 8        46.300                    91337345.76049
        34.600    22305507.16449
  24732619.219 6 129970785.490 6        38.900    24732626.125 6 101275980.09148
        33.100    24732625.31348
  20723839.297 9 108904520.505 9        50.500    20723846.367 9  84860713.80149
        55.200    20723845.27349  20723842.375 7  81324800.732 7        42.000
  22593957.484 7 118732064.957 7        43.000    22593961.867 8  92518508.33448
        33.200    22593961.63348  22593962.867 5  88663575.375 5        36.100
  21058206.625 9 110661628.070 9        53.200    21058212.734 9  86229878.83349
        54.900    21058212.57049  21058208.582 7  82636888.668 7        41.200
  20325124.891 9 106809310.697 9        52.900    20325131.039 9  83228047.30649
        55.100    20325130.69549  20325127.711 7  79760141.123 7        43.200
 21 12 14  1  5 30.0000000  0  8G16G01G21G32G08G23G10G27
  22901366.922 8 120347516.216 8        45.700                    93777272.82948
        32.200    22901370.91448
  24410138.492 5 128276168.51115        37.700    24410147.164 6  99955470.23156
        22.300    24410147.08646
  22294069.563 8 117156148.068 8        46.400                    91290524.73449
        34.000    22294072.86349
  24715272.258 6 129879623.703 6        40.900    24715278.406 5 101204944.93048
        33.100    24715276.43448
  20715877.508 9 108862680.925 9        50.700    20715884.621 9  84828111.52149
        55.500    20715883.40649  20715880.531 7  81293556.889 7        42.700
  22609242.625 7 118812389.446 7        43.300    22609247.316 7  92581098.85848
        32.600    22609246.82448  22609248.297 5  88723557.957 5        36.300
  21061500.258 9 110678936.614 9        53.500    21061506.457 9  86243366.01549
        54.900    21061506.25449  21061501.922 7  82649813.896 7        41.300
  20329597.508 9 106832813.835 9        53.100    20329603.844 9  83246361.43149
        54.900    20329603.22349  20329600.086 7  79777692.149 7        43.300
 21 12 14  1  6  0.0000000  0  8G16G01G21G32G08G23G10G27
  22920879.508 8 120450052.559 8        45.400                    93857171.26948
        31.800    22920882.83648
  24390868.969 5                        36.200    24390878.875 6  99876564.22316
        21.100    24390879.03146
  22282678.969 8 117096288.399 8        47.500                    91243880.84349
        34.700    22282681.67649
  24697936.945 6 129788529.045 6        40.100    24697943.359 5 101133962.04548
        33.000    24697942.66448
  20707989.617 9 108821227.667 9        51.300    20707996.500 9  84795810.28449
        55.700    20707995.18449  20707992.203 7  81262601.524 7        42.000
  22624597.922 7 118893081.513 7        42.600    22624602.422 8  92643975.78148
        32.200    22624601.79348  22624603.258 5  88783814.995 5        35.600
  21064898.641 9 110696794.482 9        53.000    21064904.621 9  86257281.23949
        54.900    21064904.48049  21064900.328 7  82663149.293 7        41.100
  20334156.406 9 106856771.769 9        52.900    20334162.672 9  83265029.94649
        54.900    20334162.29749  20334159.277 7  79795582.821 7        43.200
 21 12 14  1  6 30.0000000  0  8G16G01G21G32G08G23G10G27
  22940438.547 8 120552833.817 8        45.300                    93937260.55348
        30.900    22940441.40248
  24371621.188 5 128073761.55915        37.200    24371630.660 6  99797750.69355
        19.600    24371629.66845
  22271331.375 8 117036657.093 8        47.500                    91197414.91849
        34.800    22271334.39849
  24680614.102 5 129697505.221 5        36.900    24680622.461 5 101063034.33848
        30.900    24680621.16848
  20700175.008 9 108780162.928 9        51.600    20700181.992 9  84763811.78549
        55.400    20700180.87149  20700177.703 7  81231936.298 7        41.700
  22640022.336 7 118974139.343 7        43.100    22640027.238 8  92707137.71048
        32.200    22640026.79348  22640028.605 5  88844345.184 5        36.100
  21068401.164 9 110715201.411 9        53.400    21068407.266 9  86271624.30649
        55.000    21068407.20749  21068403.168 7  82676894.747 7        41.100
  20338802.117 9 106881185.305 9        53.200    20338808.582 9  83284053.46649
        55.000    20338808.14849  20338805.012 7  79813813.680 7        43.100
 21 12 14  1  7  0.0000000  0  8G16G01G21G32G08G23G10G27
  22960042.672 8 120655857.305 8        45.300                    94017538.59548
        32.100    22960046.57048
  24352392.695 5 127972713.27715        37.300    24352401.320 6  99719011.86656
        20.600    24352400.83646
  22260026.891 8 116977253.377 8        46.300                    91151126.34149
        34.900    22260030.51649
  24663308.422 6 129606554.468 6        38.200    24663315.430 6 100992163.68648
        32.800    24663314.64548
  20692434.938 9 108739487.918 9        51.500    20692441.645 9  84732116.97849
        55.300    20692440.53949  20692437.535 7  81201562.105 7        41.700
  22655516.391 7 119055559.792 7        43.000    22655521.484 8  92770582.20948
        33.000    22655520.61348  22655521.523 5  88905146.199 5        35.900
  21072008.258 9 110734155.811 9        53.200    21072014.504 9  86286393.97149
        54.900    21072014.13749  21072009.945 7  82691049.017 7        41.400
  20343534.273 9 106906053.888 9        52.400    20343541.020 9  83303431.57449
        55.000    20343540.46549  20343537.270 7  79832384.373 7        43.400
 21 12 14  1  7 30.0000000  0  8G16G01G21G32G08G23G10G27
  22979692.867 8 120759118.916 8        45.200                    94098002.18548
        31.600    22979696.57448
  24333183.992 5 127871769.02915        36.200    24333191.879 6  99640354.07656
        20.600    24333191.93846
  22248766.164 8 116918077.257 8        46.800                    91105015.11149
        34.600    22248769.44149
  24646015.688 6 129515679.590 6        39.200    24646021.730 5 100921352.09549
        34.400    24646021.65249
  20684769.148 9 108699203.863 9        51.500    20684776.016 9  84700726.80849
        55.200    20684774.90649  20684771.750 7  81171479.868 7        41.700
  22671078.945 7 119137340.023 7        43.200    22671083.688 8  92834307.05448
        33.600    22671083.03148  22671083.602 5  88966215.841 5        35.000
  21075719.039 9 110753656.321 9        53.000    21075724.957 9  86301589.18149
        54.900    21075724.86349  21075720.824 7  82705611.089 7        41.600
  20348353.531 9 106931377.217 9        52.800    20348359.859 9  83323164.03349
        55.100    20348359.18449  20348356.195 7  79851294.651 7        42.900
 21 12 14  1  8  0.0000000  0  8G16G01G21G32G08G23G10G27
  22999388.039 8 120862617.032 8        45.200                    94178650.04748
        31.700    22999391.30548
  24313994.172 5 127770929.83915        36.300    24314002.484 6  99561778.15555
        19.900    24314002.64845
  22237549.008 8 116859129.062 8        47.000                    91059081.47949
        34.200    22237551.57849
  24628736.344 5 129424883.526 5        35.500    24628744.781 6 100850601.89348
        33.000    24628743.80548
  20677177.742 9 108659312.067 9        50.800    20677184.828 9  84669642.27749
        55.600    20677183.82049  20677180.422 7  81141690.537 7        41.800
  22686709.266 7 119219477.551 7        43.100    22686713.613 7  92898310.33248
        31.900    22686713.14148  22686714.434 5  89027552.311 5        35.400
  21079533.469 9 110773701.975 9        53.400    21079539.641 9  86317209.17349
        55.000    21079539.47749  21079535.328 7  82720580.265 7        41.300
  20353258.953 9 106957155.402 9        52.700    20353265.266 9  83343250.91749
        55.000    20353264.60249  20353261.738 7  79870544.572 7        43.500
 21 12 14  1  8 30.0000000  0  8G16G01G21G32G08G23G10G27
  23019127.344 7 120966349.337 7        44.600                    94259480.42148
        31.300    23019131.03548
  24294824.930 5 127670196.90415        36.600    24294833.480 6  99483285.05156
        20.100    24294833.84046
  22226374.398 8 116800408.806 8        46.900                    91013325.44549
        34.300    22226377.42249
  24611476.148 6 129334169.587 6        38.800    24611482.188 6 100779915.74548
        31.400    24611480.87148
  20669661.477 9 108619814.647 9        52.100    20669668.738 9  84638865.07049
        55.400    20669667.70349  20669664.578 7  81112195.694 7        42.300
  22702406.914 7 119301970.367 7        41.800    22702411.383 7  92962590.44048
        30.300    22702410.42248  22702412.703 5  89089154.070 5        35.900
  21083451.578 9 110794292.186 9        53.400    21083457.914 9  86333253.50749
        54.900    21083457.63749  21083453.488 7  82735956.103 7        41.400
  20358251.016 9 106983388.960 9        53.000    20358257.309 9  83363692.64449
        54.900    20358256.69949  20358253.824 7  79890134.562 7        43.100
 21 12 14  1  9  0.0000000  0  8G16G01G21G32G08G23G10G27
  23038910.688 8 121070312.163 8        45.000                    94340490.39648
        31.200    23038914.43848
  24275675.820 4 127569570.952 4        34.600    24275685.129 6  99404875.30246
        20.100    24275684.89846  24275681.898 1  95262985.79111        30.500
  22215243.539 8 116741917.059 8        47.000                    90967747.48649
        34.700    22215246.77749
  24594227.164 4 129243540.823 4        34.800    24594235.766 5 100709295.88748
        31.600    24594234.70348
  20662220.805 9 108580712.952 9        51.600    20662227.891 9  84608396.22249
        55.100    20662226.89149  20662223.730 7  81082996.378 7        41.700
  22718171.703 7 119384815.824 7        42.400    22718176.488 7  93027145.34448
        31.300    22718175.88748  22718177.656 5  89151019.156 5        35.700
  21087473.281 9 110815425.827 9        53.200    21087479.566 9  86349721.28049
        55.000    21087479.34049  21087474.945 6  82751737.692 6        40.800
  20363329.938 9 107010077.765 9        52.300    20363335.973 9  83384489.10949
        54.900    20363335.45749  20363332.586 7  79910064.517 7        43.800
 21 12 14  1  9 30.0000000  0  8G16G01G21G32G08G23G10G27
  23058737.617 7 121174503.594 7        44.300                    94421678.51648
        30.300    23058741.26248
  24256548.414 5 127469052.789 5        35.500    24256557.734 6  99326549.54346
        21.500    24256557.17246  24256553.797 1  95187923.66111        29.100
  22204156.445 8 116683653.469 8        46.800                    90922347.31249
        34.900    22204159.87949
  24577001.133 6 129152999.940 6        40.200    24577007.102 6 100638744.56849
        34.000    24577006.41449
  20654855.648 9 108542008.659 9        51.100    20654862.813 9  84578237.02649
        56.100    20654861.71549  20654858.395 7  81054093.849 7        42.600
  22734003.180 7 119468011.349 7        42.600    22734008.137 7  93091973.01848
        31.600    22734007.39548  22734008.492 5  89213145.692 5        35.400
  21091598.320 9 110837101.720 9        53.300    21091604.504 9  86366611.59849
        54.900    21091603.97349  21091599.824 7  82767924.265 7        41.500
  20368494.992 9 107037221.812 9        52.500    20368501.398 9  83405640.29649
        55.000    20368500.92249  20368497.730 7  79930334.395 7        43.000
 21 12 14  1 10  0.0000000  0  8G16G01G21G32G08G23G10G27
  23078607.266 7 121278920.607 7        44.400                    94503042.41948
        31.500    23078610.85948
  24237441.398 5 127368643.035 5        37.500    24237450.066 6  99248308.30546
        22.500    24237449.97746  24237445.824 1  95112942.44911        30.100
  22193112.313 8 116625618.186 8        46.000                    90877125.04749
        34.300    22193115.70349
  24559786.922 5 129062549.868 5        37.700    24559794.910 6 100568263.96748
        33.800    24559794.16448
  20647566.328 9 108503703.004 9        51.700    20647573.344 9  84548388.46149
        55.200    20647572.24249  20647569.273 7  81025488.964 7        42.200
  22749901.000 7 119551554.171 7        42.900    22749905.809 8  93157071.32548
        32.300    22749905.50048  22749906.410 5  89275531.579 5        36.000
  21095825.742 9 110859318.567 9        53.000    21095831.699 9  86383923.42549
        54.900    21095831.80149  21095827.926 7  82784514.736 7        41.400
  20373746.867 9 107064820.836 9        52.700    20373753.328 9  83427146.02049
        55.000    20373752.77349  20373749.793 7  79950944.036 7        43.000
 21 12 14  1 10 30.0000000  0  8G16G01G21G32G08G23G10G27
  23098520.195 7 121383559.850 7        44.400                    94584579.49048
        30.900    23098523.49248
  24218354.234 5 127268342.479 5        36.400    24218362.402 5  99170152.08846
        20.900    24218362.41846  24218358.988 1  95038042.83911        29.800
  22182112.266 8 116567811.276 8        46.200                    90832080.72049
        34.300    22182115.16049
  24542592.453 5 128972193.321 5        36.700    24542600.762 6 100497856.27348
        32.700    24542599.07848
  20640352.945 9 108465797.069 9        50.600    20640360.387 9  84518851.37149
        55.400    20640359.07049  20640355.941 7  80997182.575 7        42.400
  22765864.336 7 119635441.633 7        42.700    22765868.977 8  93222438.16548
        32.400    22765868.44948  22765870.074 5  89338174.809 5        35.500
  21100156.172 9 110882075.105 9        52.800    21100162.586 9  86401655.80449
        54.900    21100162.22749  21100158.008 7  82801508.283 7        41.400
  20379085.375 9 107092874.700 9        52.300    20379091.781 9  83449006.16249
        55.000    20379091.25049  20379088.242 7  79971893.358 7        42.800
 21 12 14  1 11  0.0000000  0  8G16G01G21G32G08G23G10G27
  23118473.664 7 121488419.297 7        44.100                    94666288.13348
        30.500    23118477.58248
  24199288.148 3 127168152.452 3        32.900    24199296.867 5  99092082.05745
        16.900    24199296.30545  24199293.277 1  94963225.76711        30.500
  22171155.617 8 116510233.365 8        46.200                    90787214.83249
        35.500    22171158.70749
  24525416.406 5 128881933.986 5        37.700    24525424.145 6 100427524.32748
        32.500    24525422.89548
  20633216.594 9 108428293.727 9        50.800    20633223.480 9  84489627.98049
        55.700    20633222.58649  20633219.402 7  80969176.843 7        42.400
  22781893.078 7 119719671.868 7        42.700    22781897.258 7  93288072.10948
        31.400    22781896.54348  22781898.320 5  89401073.964 5        35.300
  21104589.289 9 110905370.852 9        52.200    21104595.266 9  86419808.34149
        54.900    21104595.11349  21104591.074 7  82818904.441 7        41.300
  20384510.602 9 107121384.070 9        52.000    20384516.930 9  83471221.24249
        54.900    20384516.43849  20384513.203 7  79993182.788 7        43.000
 21 12 14  1 11 30.0000000  0  8G16G01G21G32G08G23G10G27
  23138469.328 7 121593495.600 7        44.300                    94748165.76548
        30.100    23138472.92648
  24180245.422 6 127068073.480 6        38.200    24180253.012 6  99014098.56146
        22.000    24180252.60246  24180249.672 2  94888491.598 2        31.800
  22160242.453 8 116452883.993 8        46.000                    90742527.02749
        35.500    22160245.74249
  24508260.609 5 128791774.393 5        37.900    24508267.020 5 100357270.10248
        32.700    24508266.39148
  20626156.523 9 108391193.329 9        51.100    20626163.500 9  84460718.57649
        55.500    20626162.59849  20626159.391 7  80941471.984 7        42.400
  22797986.023 7 119804241.882 7        42.900    22797990.730 7  93353970.83248
        31.500    22797989.91048  22797990.664 4  89464226.911 4        34.900
  21109124.578 9 110929204.184 9        52.800    21109130.609 9  86438379.77049
        55.100    21109130.60549  21109126.488 7  82836702.079 7        41.300
  20390022.227 9 107150348.380 9        53.000    20390028.723 9  83493790.82549
        55.000    20390028.12149  20390024.945 7  80014811.975 7        43.500
 21 12 14  1 12  0.0000000  0  8G16G01G21G32G08G23G10G27
  23158505.516 7 121698785.741 7        44.400                    94830210.02647
        29.900    23158508.77347
  24161220.898 6 126968106.161 6        38.200    24161229.930 6  98936202.02446
        22.600    24161229.79346  24161225.980 1  94813840.795 1        28.900
  22149372.789 8 116395762.824 8        46.200                    90698017.04649
        35.400    22149376.10549
  24491123.227 6 128701717.227 6        38.400    24491130.625 6 100287095.66749
        34.000    24491129.44549
  20619173.688 9 108354497.328 9        50.800    20619180.719 9  84432124.29049
        55.400    20619179.52749  20619176.164 7  80914069.129 7        42.200
  22814143.289 7 119889148.861 7        43.500    22814147.918 7  93420132.09048
        31.400    22814147.25448  22814148.344 5  89527631.517 5        35.300
  21113761.914 9 110953573.706 9        51.900    21113768.020 9  86457369.00749
        55.000    21113767.82049  21113763.648 7  82854900.118 7        41.000
  20395620.789 9 107179767.379 9        52.000    20395626.930 9  83516714.70749
        55.000    20395626.31349  20395623.273 7  80036780.695 7        43.400
 21 12 14  1 12 30.0000000  0  8G16G01G21G32G08G23G10G27
  23178581.883 7 121804287.522 7        44.300                    94912419.19948
        30.000    23178585.19148
  24142219.445 5 126868251.391 5        35.800    24142227.195 5  98858393.22645
        19.900    24142227.22345  24142222.719 1  94739273.91611        28.400
  22138546.250 8 116338870.281 8        46.400                    90653685.21749
        36.300    22138549.83649
  24474004.711 5 128611765.571 5        35.800    24474013.406 6 100217003.47948
        33.100    24474012.24648
  20612267.609 9 108318207.312 9        50.500    20612274.695 9  84403846.35049
        55.500    20612273.64549  20612270.449 7  80886969.443 7        42.000
  22830364.313 7 119974390.431 7        43.300    22830369.160 7  93486554.10548
        31.800    22830367.85548  22830369.664 5  89591285.915 5        35.400
  21118501.023 9 110978478.368 9        52.200    21118507.148 9  86476775.24049
        55.000    21118506.88749  21118503.164 7  82873497.760 7        41.000
  20401305.414 9 107209641.143 9        52.100    20401311.688 9  83539992.96549
        55.000    20401311.13749  20401308.086 7  80059089.025 7        42.900
 21 12 14  1 13  0.0000000  0  8G16G01G21G32G08G23G10G27
  23198698.164 7 121909998.918 7        43.900                    94994791.70947
        29.700    23198701.39147
  24123238.250 5 126768510.223 5        35.000    24123247.336 6  98780672.93245
        18.600    24123246.19545  24123244.668 3  94664792.092 3        32.800
  22127763.539 8 116282206.629 8        46.200                    90609531.73649
        35.900    22127766.98049
  24456909.375 5 128521922.771 5        37.700    24456916.660 6 100146996.13748
        32.600    24456915.41048
  20605439.672 9 108282324.981 9        51.100    20605446.445 9  84375886.10249
        55.200    20605445.31649  20605442.195 7  80860174.207 7        42.200
  22846648.828 7 120059964.385 7        42.800    22846652.828 7  93553235.10748
        30.900    22846651.92648  22846653.605 5  89655188.528 5        35.400
  21123341.992 9 111003917.261 9        51.900    21123348.008 9  86496597.75949
        54.900    21123347.77049  21123343.875 6  82892494.333 6        40.900
  20407076.781 9 107239969.869 9        52.500    20407083.141 9  83563625.72749
        55.100    20407082.49249  20407079.539 7  80081737.079 7        43.000
 21 12 14  1 13 30.0000000  0  8G16G01G21G32G08G23G10G27
  23218853.633 7 122015916.109 7        44.000                    95077324.58147
        29.400    23218856.88747
  24104281.930 6 126668883.471 6        40.200    24104289.977 6  98703041.77447
        25.100    24104289.73847  24104286.094 3  94590395.652 3        32.400
  22117024.320 8 116225771.723 8        46.000                    90565556.49649
        35.800    22117027.81649
  24439833.820 6 128432191.650 6        38.100    24439841.297 6 100077075.76448
        33.400    24439840.25848
  20598689.102 9 108246851.782 9        50.200    20598696.258 9  84348244.64749
        55.400    20598695.01249  20598692.074 7  80833684.497 7        42.000
  22862995.398 7 120145867.964 7        42.000    22863000.059 7  93620172.96047
        29.800    22862998.87947  22863000.465 5  89719337.341 5        35.000
  21128283.992 9 111029888.944 9        51.200    21128290.281 9  86516835.43449
        54.900    21128290.18449  21128285.785 7  82911888.743 7        41.300
  20412934.547 9 107270753.274 9        51.700    20412940.832 9  83587612.78949
        55.000    20412940.40649  20412937.527 7  80104724.675 7        43.000
 21 12 14  1 14  0.0000000  0  9G16G01G21G32G08G23G22G10G27
  23239047.250 7 122122036.056 7        44.500                    95160015.43047
        29.300    23239051.00447
  24085343.281 5 126569371.431 5        35.800    24085353.012 6  98625500.00646
        21.300    24085352.73046  24085347.945 1  94516084.72411        28.200
  22106328.852 8 116169565.322 8        46.500                    90521759.32749
        35.600    22106331.85949
  24422780.180 6 128342574.630 6        38.700    24422787.910 6 100007244.28948
        33.700    24422786.48048
  20592017.250 9 108211788.327 9        50.600    20592024.063 9  84320922.47449
        55.500    20592022.80149  20592019.719 7  80807500.743 7        42.700
  22879404.141 7 120232098.100 7        42.300    22879408.918 7  93687365.27548
        30.500    22879408.28948  22879409.461 5  89783729.962 5        35.300
  25155837.352 3                        32.500

  21133327.711 9 111056391.688 9        52.400    21133333.629 9  86537486.92449
        54.900    21133333.67249  21133329.180 7  82931679.751 7        41.700
  20418878.766 9 107301990.716 9        52.000    20418885.375 9  83611953.64549
        54.900    20418884.82449  20418881.945 7  80128051.335 7        43.000
 21 12 14  1 14 30.0000000  0  9G16G01G21G32G08G23G22G10G27
  23259279.648 7 122228356.427 7        44.100                    95242862.47448
        30.400    23259282.70348
  24066430.625 6 126469975.475 6        38.600    24066438.109 6  98548048.77646
        20.900    24066439.10246  24066433.445 1  94441860.62111        30.200
  22095676.375 8 116113588.236 8        46.300                    90478140.83149
        35.900    22095679.77349
  24405748.875 5 128253075.476 5        36.900    24405756.836 6  99937504.67349
        34.100    24405755.75849
  20585423.070 9 108177137.207 9        51.100    20585429.984 9  84293921.60449
        55.500    20585428.80549  20585425.871 7  80781624.895 7        42.300
  22895875.117 7 120318653.166 7        42.500    22895879.801 7  93754810.78348
        30.400    22895879.03548  22895881.133 4  89848365.225 4        34.900
  25134322.508 3 132081757.030 3        32.500                   102920860.23255
        18.300    25134324.90245
  21138471.711 9 111083425.008 9        51.500    21138477.938 9  86558551.85949
        54.900    21138477.68049  21138473.594 7  82951867.000 7        41.500
  20424909.867 9 107333682.954 9        51.200    20424916.313 9  83636648.88449
        54.900    20424915.62149  20424912.676 7  80151717.603 7        43.200
 21 12 14  1 15  0.0000000  0  9G16G01G21G32G08G23G22G10G27
  23279549.641 7 122334875.014 7        44.300                    95325863.96648
        30.000    23279552.57048
  24047537.773 6 126370696.294 6        39.000    24047544.457 5  98470688.37445
        19.600    24047543.95745  24047541.020 1  94367723.58311        30.100
  22085067.430 8 116057840.248 8        46.300                    90434700.85949
        35.400    22085071.21949
  24388741.180 6 128163696.647 6        38.700    24388748.977 6  99867858.85349
        34.800    24388748.18849
  20578907.820 9 108142899.712 9        50.900    20578914.832 9  84267243.03449
        55.200    20578913.78149  20578910.730 7  80756057.937 7        42.300
  22912406.898 7 120405529.866 7        41.800    22912411.879 7  93822506.90547
        29.700    22912411.13747  22912413.199 5  89913240.650 5        35.000
  25112818.867 3 131968753.92613        33.700                   102832806.08755
        17.400    25112820.69145
  21143716.633 9 111110987.122 9        51.500    21143722.816 9  86580028.83649
        54.900    21143722.60949  21143718.559 6  82972449.080 6        40.900
  20431026.969 9 107365829.264 9        52.200    20431033.480 9  83661697.93949
        55.000    20431032.81349  20431029.699 7  80175722.950 7        43.100
 21 12 14  1 15 30.0000000  0  9G16G01G21G32G08G23G22G10G27
  23299856.367 7 122441588.700 7        44.100                    95409017.47747
        29.100    23299859.57847
  24028666.563 5 126271534.471 5        37.800    24028676.949 6  98393419.45346
        21.300    24028676.15246  24028673.219 3  94293674.252 3        33.300
  22074503.289 8 116002321.014 8        46.300                    90391439.12949
        35.700    22074506.03149
  24371756.297 6 128074441.175 6        38.100    24371764.023 6  99798309.14549
        35.100    24371763.14849
  20572471.586 9 108109075.977 9        50.700    20572478.324 9  84240886.88349
        55.600    20572477.21149  20572474.199 7  80730799.959 7        42.800
  22929000.320 7 120492725.744 7        42.600    22929004.852 7  93890451.75348
        30.900    22929004.01248  22929005.352 5  89978354.498 5        35.300
  25091326.242 3 131855812.297 3        33.400                   102744799.30845
        16.300    25091327.32845
  21149061.836 9 111139076.700 9        51.300    21149067.977 9  86601916.82649
        55.000    21149067.84849  21149063.570 7  82993425.080 7        41.300
  20437230.680 9 107398429.538 9        52.300    20437236.988 9  83687100.74149
        54.900    20437236.41449  20437233.313 7  80200067.287 7        43.200
 21 12 14  1 16  0.0000000  0  8G16G01G21G32G08G23G10G27
  23320199.750 7 122548494.557 7        44.300                    95492320.74147
        29.200    23320203.21947
  24009819.289 5 126172491.229 5        35.000    24009829.027 6  98316243.03646
        20.100    24009829.12546  24009824.785 1  94219713.538 1        30.600
  22063981.883 8 115947030.933 8        47.100                    90348355.96349
        35.800    22063984.56649
  24354795.539 6 127985312.422 6        38.300    24354802.547 6  99728858.16048
        33.600    24354801.93848
  20566114.422 9 108075668.883 9        50.500    20566121.301 9  84214855.37149
        55.100    20566120.14149  20566116.938 7  80705853.109 7        42.000
  22945653.367 7 120580238.680 7        42.000    22945658.016 7  93958643.66148
        31.100    22945657.17248  22945658.430 4  90043705.082 4        34.900
  21154507.617 9 111167692.881 9        51.400    21154513.340 9  86624215.14549
        54.900    21154513.46549  21154509.211 6  83014794.310 6        40.500
  20443520.703 9 107431484.010 9        52.700    20443527.039 9  83712857.46449
        55.000    20443526.49649  20443523.633 7  80224750.827 7        43.400
 21 12 14  1 16 30.0000000  0  9G16G01G21G32G08G23G22G10G27
  23340579.484 7 122655589.875 7        43.300                    95575771.62547
        29.400    23340582.80947
  23990995.617 6 126073567.360 6        39.000    23991004.082 5  98239159.53446
        21.800    23991003.46946  23990999.281 1  94145841.87911        30.400
  22053504.109 8 115891970.205 8        46.300                    90305451.52149
        35.900    22053506.94149
  24337859.680 6 127896313.178 6        38.400    24337866.516 6  99659508.09948
        33.100    24337866.12948
  20559836.703 9 108042679.939 9        50.700    20559843.656 9  84189149.70649
        55.400    20559842.52349  20559839.508 7  80681218.512 7        41.700
  22962365.844 7 120668065.972 7        41.800    22962370.895 8  94027080.49748
        31.300    22962370.41848  22962372.223 5  90109290.367 5        35.200
  25048380.273 5 131630121.66415        35.600                   102568935.69055
        18.600    25048381.48845
  21160052.750 9 111196834.158 9        51.300    21160058.789 9  86646922.63649
        54.900    21160058.86349  21160054.863 7  83036555.654 7        41.300
  20449897.203 9 107464992.388 9        52.400    20449903.578 9  83738967.86749
        55.100    20449902.95749  20449900.180 7  80249773.283 7        43.200
 21 12 14  1 17  0.0000000  0  8G16G01G21G32G08G23G10G27
  23360994.773 7 122762872.102 7        44.100                    95659368.15647
        28.500    23360997.66447
  23972193.633 5 125974763.248 5        36.300    23972201.285 5  98162169.31545
        19.300    23972201.69545  23972197.492 1  94072059.61711        29.800
  22043069.930 8 115837138.706 8        47.000                    90262725.68149
        36.100    22043072.62549
  24320948.781 6 127807446.085 6        38.500    24320956.465 6  99590261.01449
        35.100    24320955.73049
  20553638.648 9 108010109.772 9        50.500    20553645.879 9  84163770.35549
        55.400    20553644.64549  20553641.320 7  80656896.633 7        42.200
  22979138.305 7 120756204.761 7        42.100    22979143.055 7  94095760.06748
        30.500    22979142.60248  22979143.934 5  90175108.288 5        35.500
  21165697.719 9 111226498.816 9        51.100    21165703.980 9  86670037.95849
        54.900    21165703.85949  21165699.488 6  83058707.852 6        40.800
  20456359.781 9 107498954.127 9        52.500    20456366.309 9  83765431.55649
        55.000    20456365.65249  20456362.594 7  80275134.312 7        43.200
 21 12 14  1 17 30.0000000  0  9G16G01G21G32G08G23G22G10G27
  23381444.414 7 122870337.411 7        43.900                    95743107.35047
        29.700    23381447.94947
  23953414.672 5 125876079.811 5        37.300    23953422.863 6  98085273.23346
        20.600    23953423.16046  23953419.391 2  93998367.49112        31.800
  22032679.570 8 115782536.171 8        46.700                    90220178.26749
        36.000    22032682.37149
  24304064.586 6 127718714.260 6        39.600    24304071.586 6  99521119.32549
        36.500    24304070.68049
  20547520.828 9 107977959.605 9        50.500    20547527.758 9  84138718.28149
        55.900    20547526.67649  20547523.547 7  80632888.399 7        42.400
  22995969.578 7 120844652.411 7        41.600    22995974.199 7  94164680.31348
        30.000    22995973.56648  22995974.863 5  90241156.835 5        35.400
  25005483.008 5 131404707.63215        36.000                   102393282.10356
        24.000    25005485.46546
  21171442.250 9 111256685.542 9        51.700    21171448.313 9  86693560.07849
        54.900    21171448.17249  21171444.270 7  83081249.886 7        41.000
  20462908.797 9 107533369.042 9        52.700    20462915.301 9  83792248.35949
        55.000    20462914.64549  20462911.652 7  80300833.758 7        43.000
 21 12 14  1 18  0.0000000  0  9G16G01G21G32G08G23G22G10G27
  23401929.219 7 122977984.374 7        44.100                    95826988.07947
        29.600    23401932.55547
  23934659.414 6 125777518.762 6        38.100    23934668.293 6  98008472.48946
        21.800    23934667.57446  23934664.016 3  93924766.819 3        32.100
  22022332.609 8 115728163.774 8        46.800                    90177810.17349
        36.800    22022335.83249
  24287205.820 6 127630121.592 6        39.400    24287212.387 6  99452086.08649
        35.700    24287212.11349
  20541483.000 9 107946232.323 9        50.600    20541490.031 9  84113995.71749
        56.100    20541489.14849  20541485.965 7  80609195.932 7        42.600
  23012859.141 7 120933407.497 7        41.400    23012863.617 7  94233840.11147
        29.900    23012863.39147  23012864.039 4  90307434.975 4        34.600
  24984056.016 2 131292103.249 2        31.600                   102305538.41844
        14.800    24984056.90244
  21177285.742 9 111287393.960 9        51.300    21177292.012 9  86717488.71849
        54.900    21177291.89149  21177287.727 7  83104181.491 7        41.700
  20469544.070 9 107568237.949 9        51.900    20469550.383 9  83819418.92549
        55.000    20469550.00049  20469547.207 7  80326872.210 7        42.700
 21 12 14  1 18 30.0000000  0  9G16G01G21G32G08G23G22G10G27
  23422447.391 7 123085809.365 7        44.100                    95911007.54647
        28.000    23422450.75047
  23915926.563 5 125679079.527 5        36.800    23915934.781 6  97931766.64945
        19.900    23915934.88345  23915930.926 2  93851257.078 2        31.200
  22012029.422 8 115674019.935 8        47.900                    90135620.17749
        36.100    22012032.40249
  24270373.250 6 127541669.566 6        38.300    24270380.703 6  99383162.43349
        35.100    24270379.65649
  20535526.078 9 107914927.362 9        50.900    20535533.148 9  84089602.23749
        55.800    20535532.09449  20535528.898 7  80585818.859 7        42.900
  23029806.477 7 121022465.856 7        41.700    23029810.711 7  94303236.23048
        30.100    23029810.16848  23029811.484 4  90373939.589 4        34.700
  24962641.172 3 131179571.15413        33.600                   102217851.02955
        18.300    24962642.91845
  21183228.109 9 111318621.093 9        51.700    21183234.148 9  86741821.55449
        55.000    21183233.84449  21183230.172 7  83127500.460 7        41.400
  20476265.414 9 107603559.090 9        52.300    20476272.047 9  83846941.88749
        55.000    20476271.38749  20476268.484 7  80353248.369 7        42.700
 21 12 14  1 19  0.0000000  0  9G16G01G21G32G08G23G22G10G27
  23442999.227 7 123193809.868 7        43.800                    95995163.78447
        28.800    23443002.25047
  23897218.320 6 125580763.311 6        38.600    23897226.414 6  97855156.66946
        22.000    23897225.60546  23897222.418 3  93777839.202 3        32.500
  22001769.586 8 115620105.241 8        47.500                    90093608.74349
        36.600    22001772.42249
  24253569.078 6 127453361.780 6        39.400    24253576.266 6  99314351.15549
        35.400    24253575.19549
  20529649.602 9 107884046.860 9        51.000    20529656.605 9  84065539.50849
        55.400    20529655.79349  20529652.371 7  80562758.745 7        42.300
  23046811.117 7 121111825.497 7        42.000    23046815.070 7  94372867.12647
        29.300    23046814.65647  23046816.699 4  90440669.257 4        34.800
  24941240.609 3 131067114.319 3        33.700                   102130222.36045
        17.800    24941243.03945
  21189269.109 9 111350366.159 9        51.100    21189275.207 9  86766557.97849
        54.900    21189274.91849  21189270.984 7  83151206.185 7        41.400
  20483072.938 9 107639332.777 9        51.300    20483079.516 9  83874817.47949
        55.000    20483078.83249  20483076.031 7  80379962.497 7        43.100
 21 12 14  1 19 30.0000000  0  9G16G01G21G32G08G23G22G10G27
  23463584.148 7 123301983.244 7        43.500                    96079454.70947
        29.400    23463587.55147
  23878531.891 5 125482571.224 5        37.400    23878540.641 6  97778643.40146
        20.900    23878540.54346  23878536.813 2  93704514.004 2        31.000
  21991553.633 8 115566419.640 8        47.200                    90051775.82849
        36.400    21991556.57449
  24236792.563 6 127365201.352 6        39.300    24236799.348 6  99245654.69149
        36.200    24236799.25449
  20523854.406 9 107853592.251 9        50.900    20523861.445 9  84041808.64449
        55.200    20523860.51649  20523857.078 7  80540016.657 7        42.600
  23063872.836 7 121201484.074 7        41.700    23063877.090 7  94442730.95547
        29.700    23063876.44147  23063878.285 5  90507622.031 5        35.000
  24919856.141 2                        31.300
        19.000    24919857.86345
  21195408.133 9 111382627.840 9        51.100    21195414.406 9  86791696.95349
        54.900    21195414.03949  21195410.012 6  83175297.709 6        40.800
  20489966.555 9 107675558.979 9        53.100    20489973.211 9  83903045.67449
        55.000    20489972.42249  20489969.699 7  80407014.499 7        42.400
 21 12 14  1 20  0.0000000  0  9G16G01G21G32G08G23G22G10G27
  23484201.133 7 123410326.958 7        43.600                    96163878.37647
        27.600    23484204.35247
  23859871.094 5 125384503.966 5        37.700    23859879.508 6  97702227.43146
        21.800    23859879.07446  23859874.820 2  93631282.035 2        31.700
  21981381.344 8 115512963.802 8        46.900                    90010121.94549
        36.900    21981384.62549
  24220044.578 6 127277191.178 6        38.700    24220052.273 6  99177075.34549
        36.500    24220051.45749
  20518140.266 9 107823565.087 9        50.500    20518147.465 9  84018410.85149
        55.700    20518146.34049  20518143.176 7  80517593.780 7        41.800
  23080990.469 7 121291438.962 7        41.600    23080995.027 7  94512825.66247
        29.900    23080994.32047  23080995.734 4  90574796.143 4        34.100
  24898486.164 5                        35.500
        19.300    24898488.07045
  21201645.758 9 111415404.664 9        52.200    21201651.508 9  86817237.34249
        54.900    21201651.21949  21201647.266 7  83199773.911 7        41.200
  20496946.406 9 107712237.344 9        53.400    20496952.766 9  83931626.21349
        55.000    20496952.16049  20496949.336 7  80434404.174 7        43.100
 21 12 14  1 20 30.0000000  0  9G16G01G21G32G08G23G22G10G27
  23504849.398 7 123518837.755 7        43.700                    96248432.23547
        27.800    23504853.47347
  23841233.031 5 125286562.567 5        37.900    23841240.836 6  97625909.53746
        22.000    23841240.92246  23841237.262 2  93558144.050 2        31.400
  21971252.914 8 115459737.812 8        47.300                    89968647.16449
        36.900    21971255.98449
  24203326.250 6 127189334.502 6        39.400    24203333.551 6  99108615.60749
        36.100    24203332.91049
  20512507.961 9 107793966.777 9        50.800    20512515.039 9  83995347.23149
        55.900    20512514.09849  20512510.633 7  80495491.153 7        42.800
  23098164.211 7 121381687.802 7        42.500    23098168.418 7  94583149.42647
        29.300    23098168.00047  23098169.473 3  90642189.739 3        33.600
  24877129.289 2                        31.600
        18.600    24877132.95745
  21207980.281 9 111448695.331 9        51.100    21207986.543 9  86843178.12449
        55.000    21207986.61749  21207982.109 6  83224633.820 6        40.900
  20504012.125 9 107749367.803 9        52.400    20504018.441 9  83960559.02049
        54.900    20504017.86749  20504014.820 7  80462131.459 7        43.200
 21 12 14  1 21  0.0000000  0  9G16G01G21G32G08G23G22G10G27
  23525530.773 7 123627513.313 7        43.900                    96333114.47047
        28.900    23525533.68047
  23822619.391 6 125188747.629 6        38.300    23822628.227 6  97549690.19146
        22.200    23822627.07446  23822623.188 2  93485100.50312        31.600
  21961167.891 8 115406740.807 8        47.100                    89927350.81649
        37.800    21961171.06649
  24186637.539 6 127101634.044 6        40.200    24186644.391 6  99040277.59249
        36.000    24186643.71149
  20506957.586 9 107764798.310 9        50.500    20506964.219 9  83972618.55249
        55.800    20506963.59049  20506960.305 7  80473709.499 7        42.300
  23115393.242 7 121472227.831 7        41.800    23115397.848 7  94653700.09748
        30.100    23115397.09048  23115398.695 3  90709800.807 3        33.500
  24855790.094 2                        31.500
        18.300    24855794.38345
  21214412.922 9 111482498.213 9        51.100    21214418.984 9  86869518.03349
        54.900    21214418.74649  21214414.359 6  83249876.247 6        40.800
  20511163.547 9 107786949.897 9        52.700    20511170.109 9  83989843.75749
        54.900    20511169.53149  20511166.500 7  80490195.979 7        42.600
 21 12 14  1 21 30.0000000  0  9G16G01G21G32G08G23G22G10G27
  23546241.328 7 123736350.077 7        43.400                    96417922.33147
        28.800    23546244.57047
  23804030.063 6 125091059.942 6        38.800    23804037.695 5  97473569.97146
        21.300    23804037.32446  23804034.176 2  93412151.997 2        31.300
  21951126.688 8 115353973.372 8        46.900                    89886233.34849
        37.500    21951129.63749
  24169978.094 6 127014092.814 6        39.700    24169985.625 6  98972063.60949
        36.000    24169984.93049
  20501488.859 9 107736061.288 9        50.500    20501496.055 9  83950226.06549
        56.100    20501494.93049  20501491.695 7  80452250.029 7        42.600
  23132677.328 7 121563056.436 7        41.700    23132682.160 7  94724475.62647
        29.400    23132681.66047  23132682.691 4  90777627.344 4        34.300
  24834469.789 5 130506023.53915        36.000                   101692998.50156
        20.100    24834470.62146
  21220942.414 9 111516811.702 9        50.700    21220948.730 9  86896255.81749
        54.900    21220948.58249  21220944.098 7  83275499.972 7        41.300
  20518401.086 9 107824983.230 9        51.800    20518407.664 9  84019480.09949
        55.000    20518407.04749  20518403.941 7  80518597.474 7        43.000
 21 12 14  1 22  0.0000000  0  8G16G01G21G32G08G23G10G27
  23566982.516 7 123845346.126 7        43.500                    96502854.31047
        28.000    23566986.10547
  23785463.969 5 124993500.367 5        37.600    23785473.324 6  97397549.58546
        21.800    23785472.76646  23785469.496 2  93339299.175 2        31.700
  21941129.148 8 115301435.783 8        46.800                    89845294.98849
        37.700    21941132.02749
  24153350.891 6 126926713.942 6        39.200    24153358.836 7  98903976.18049
        37.000    24153358.21549
  20496102.992 9 107707756.930 9        51.100    20496109.852 9  83928170.72049
        55.200    20496108.82049  20496105.414 7  80431113.651 7        42.700
  23150015.859 7 121654171.271 7        42.100    23150020.758 7  94795474.17847
        29.500    23150020.28147  23150021.715 4  90845667.632 4        34.400
  21227569.047 9 111551634.519 9        51.300    21227575.266 9  86923390.48249
        54.900    21227575.23849  21227571.098 6  83301504.025 6        40.900
  20525724.289 9 107863467.727 9        52.300    20525731.129 9  84049468.00949
        54.900    20525730.35549  20525727.457 7  80547335.903 7        43.100
 21 12 14  1 22 30.0000000  0  9G16G01G21G32G08G23G22G10G27
  23587753.141 7 123954498.377 7        42.500                    96587908.01047
        26.400    23587756.71547
  23766924.477 6 124896069.733 6        38.700    23766932.301 6  97321629.70146
        21.500    23766932.16046  23766929.145 3  93266542.623 3        32.100
  21931175.453 8 115249127.829 8        47.200                    89804535.55449
        37.100    21931178.24249
  24136755.375 6 126839500.326 6        39.800    24136762.418 6  98836017.53749
        37.700    24136761.78549
  20490799.320 9 107679886.905 9        51.000    20490806.461 9  83906453.81049
        55.600    20490805.20749  20490802.176 7  80410301.626 7        42.400
  23167408.500 7 121745569.695 7        42.300    23167413.043 7  94866693.72547
        29.300    23167412.52747  23167413.594 4  90913919.660 4        34.800
  24791872.047 1 130282178.86611        29.600                   101518579.30855
        17.800    24791875.93445
  21234292.258 9 111586965.044 9        51.100    21234298.547 9  86950920.76449
        54.900    21234298.20749  21234294.203 7  83327887.197 7        41.100
  20533133.906 9 107902402.948 9        51.800    20533140.070 9  84079807.13149
        54.900    20533139.58649  20533136.590 7  80576410.888 7        43.000
 21 12 14  1 23  0.0000000  0  9G16G01G21G32G08G23G22G10G27
  23608553.734 7 124063804.357 7        42.800                    96673081.49747
        27.100    23608557.09447
  23748407.609 6 124798768.782 6        39.000    23748416.391 6  97245810.87646
        22.800    23748416.42646  23748412.563 2  93193882.949 2        31.500
  21921264.789 8 115197048.840 8        46.900                    89763954.53849
        38.100    21921267.98049
  24120191.125 6 126752454.965 6        40.900    24120198.430 7  98768189.98949
        37.300    24120196.96149
  20485578.813 9 107652452.368 9        51.000    20485585.695 9  83885076.24349
        56.200    20485584.44549  20485581.660 7  80389814.775 7        42.900
  23184854.430 7 121837249.082 7        41.500    23184858.934 7  94938132.22247
        27.800    23184858.23447  23184859.805 4  90982381.572 4        34.400
  24770601.602 5 130170391.84415        35.000                   101431481.42355
        18.300    24770603.69945
  21241111.883 9 111622801.681 9        51.000    21241117.934 9  86978845.41949
        55.000    21241117.73049  21241113.738 6  83354648.304 6        40.900
  20540628.406 9 107941788.536 9        51.500    20540634.965 9  84110497.19549
        55.000    20540634.55949  20540631.352 7  80605822.194 7        42.400
 21 12 14  1 23 30.0000000  0  9G16G01G21G32G08G23G22G10G27
  23629382.211 7 124173260.394 7        43.100                    96758371.90647
        27.900    23629385.72747
  23729918.320 6 124701598.373 6        38.600    23729926.051 6  97170093.71846
        22.800    23729925.50846  23729921.063 2  93121320.71012        31.700
  21911398.281 8 115145200.138 8        47.000                    89723552.96149
        38.200    21911401.18449
  24103659.656 7 126665580.901 7        41.400    24103666.387 6  98700495.89349
        37.700    24103665.39849
  20480441.172 9 107625454.428 9        50.700    20480448.332 9  83864038.88549
        55.700    20480446.94949  20480444.125 7  80369653.997 7        42.500
  23202353.898 6 121929207.060 6        40.900    23202358.621 7  95009787.78347
        29.400    23202357.64847  23202359.324 4  91051051.480 4        34.700
  24749347.063 3                        33.900
        20.600    24749349.14546
  21248026.961 9 111659142.967 9        50.800    21248033.289 9  87007163.31449
        54.900    21248033.04749  21248029.355 7  83381786.308 7        41.100
  20548208.938 9 107981624.219 9        52.500    20548215.484 9  84141537.97249
        55.100    20548215.05549  20548212.012 7  80635569.599 7        42.600
 21 12 14  1 24  0.0000000  0  9G16G01G21G32G08G23G22G10G27
  23650239.805 7 124282864.981 7        42.700                    96843778.06847
        28.200    23650242.89547
  23711451.094 6 124604559.202 6        38.300    23711459.867 6  97094478.86146
        22.500    23711459.75846  23711455.340 2  93048856.451 2        31.700
  21901575.695 8 115093581.145 8        47.300                    89683330.38249
        37.800    21901578.16449
  24087160.305 6 126578881.043 6        39.700    24087168.074 7  98632937.55149
        36.900    24087167.21549
  20475387.094 9 107598894.881 9        51.700    20475394.215 9  83843343.12749
        56.300    20475392.90249  20475389.852 7  80349820.542 7        42.600
  23219904.828 7 122021440.918 7        41.400    23219909.895 7  95081658.29348
        30.000    23219909.27748  23219910.688 4  91119927.409 4        34.400
  24728108.281 2                        31.200
        17.400    24728112.12145
  21255038.539 9 111695987.264 9        51.500    21255044.590 9  87035873.16149
        55.000    21255044.29349  21255040.328 7  83409299.916 7        41.200
  20555875.305 9 108021909.590 9        52.200    20555881.449 9  84172929.16349
        55.400    20555881.03949  20555877.934 7  80665652.807 7        42.900
 21 12 14  1 24 30.0000000  0  9G16G01G21G32G08G23G22G10G27
  23671124.047 7 124392614.889 7        42.600                    96929297.44347
        27.700    23671127.87947
  23693011.406 6 124507652.095 6        39.200    23693019.164 6  97018966.95346
        23.300    23693018.89846  23693014.852 2  92976490.853 2        31.800
  21891796.313 8 115042191.759 8        47.100                    89643286.71449
        37.700    21891799.21549
  24070696.359 6 126492358.330 6        40.900    24070703.680 7  98565517.28949
        37.700    24070702.73049
  20470416.672 9 107572774.455 9        51.700    20470423.555 9  83822989.55149
        55.000    20470422.53549  20470419.277 7  80330315.041 7        42.700
  23237508.977 6 122113948.135 6        40.900    23237513.148 7  95153741.82447
        29.400    23237512.57047  23237514.125 4  91189007.437 4        34.100
  24706890.477 3                        32.400
        18.600    24706894.39545
  21262145.023 9 111733332.967 9        51.100    21262151.195 9  87064973.70749
        54.900    21262150.94149  21262146.746 7  83437187.946 7        41.300
  20563626.852 9 108062644.220 9        51.600    20563633.133 9  84204670.42049
        55.000    20563632.56349  20563629.570 7  80696071.538 7        43.000
 21 12 14  1 25  0.0000000  0  9G16G01G21G32G08G23G22G10G27
  23692036.422 7 124502506.483 7        43.300                    97014927.24947
        27.400    23692039.63347
  23674595.625 6 124410878.005 6        39.700    23674603.859 6  96943558.62046
        24.300    23674603.58646  23674600.066 2  92904224.587 2        31.800
  21882061.109 8 114991032.144 8        47.400                    89603422.09149
        38.000    21882064.24249
  24054266.344 7 126406015.962 7        42.300    24054273.578 7  98498237.51949
        38.800    24054272.12149  24054269.246 2  94394118.92912        31.000
  20465529.914 9 107547094.758 9        51.400    20465536.953 9  83802979.39549
        55.700    20465535.76249  20465532.766 7  80311138.639 7        42.300
  23255163.789 7 122206726.320 7        41.600    23255168.289 7  95226036.50847
        28.700    23255167.41447  23255168.855 4  91258289.829 4        34.300
  24685691.516 4 129724193.32814        34.300                   101083794.24256
        20.100    24685695.27746
  21269346.758 9 111771178.640 9        51.200    21269353.020 9  87094463.84549
        54.900    21269352.95749  21269348.438 6  83465449.308 6        40.100
  20571463.359 9 108103827.866 9        52.700    20571470.094 9  84236761.56349
        55.000    20571469.46549  20571466.449 7  80726825.528 7        42.700
 21 12 14  1 25 30.0000000  0  9G16G01G21G32G08G23G22G10G27
  23712973.523 7 124612538.129 7        42.200                    97100666.18447
        26.500    23712977.89847
  23656205.281 6 124314237.527 6        39.500    23656213.324 6  96868254.40746
        23.000    23656213.24246  23656208.289 2  92832058.10412        31.000
  21872369.375 8 114940101.958 8        47.000                    89563736.24749
        37.300    21872372.61349
  24037870.313 7 126319856.708 7        41.500    24037877.477 6  98431100.43349
        38.300    24037876.27349  24037873.902 2  94329779.245 2        31.600
  20460727.336 9 107521856.961 9        51.100    20460734.313 9  83783313.57749
        56.200    20460733.17649  20460730.336 7  80292292.239 7        42.600
  23272870.133 7 122299772.715 7        41.300    23272874.477 7  95298540.19047
        29.300    23272873.62147  23272875.113 3  91327772.548 3        33.400
  24664512.156 4                        34.700
        18.300    24664513.87145
  21276643.508 9 111809522.499 9        51.300    21276649.730 9  87124342.18049
        54.900    21276649.52749  21276645.313 7  83494082.726 7        41.100
  20579385.914 9 108145460.033 9        52.100    20579392.398 9  84269202.19749
        55.000    20579391.77749  20579388.824 7  80757914.475 7        42.300
 21 12 14  1 26  0.0000000  0  9G16G01G21G32G08G23G22G10G27
  23733938.906 7 124722706.748 7        41.700                    97186511.85547
        26.600    23733942.34847
  23637840.445 6 124217731.366 6        39.200    23637849.012 7  96793054.85346
        23.300    23637848.24246  23637844.832 3  92759991.81313        32.300
  21862721.305 8 114889401.588 8        47.300                    89524229.47849
        37.300    21862724.31349
  24021509.430 6 126233883.437 6        40.200    24021516.961 6  98364108.28049
        37.300    24021515.91449  24021513.254 2  94265578.47012        31.000
  20456008.992 9 107497061.908 9        51.100    20456016.066 9  83763992.75349
        55.900    20456014.75849  20456011.660 7  80273776.437 7        42.400
  23290626.414 7 122393084.731 7        41.100    23290631.098 7  95371250.85147
        28.500    23290630.50047  23290631.895 3  91397453.589 3        33.100
  24643351.813 3 129501684.55913        33.300                   100910410.95155
        19.000    24643353.52745
  21284034.633 9 111848362.798 9        50.700    21284041.016 9  87154607.34549
        54.900    21284040.77749  21284036.582 6  83523086.845 6        40.900
  20587393.781 9 108187540.152 9        52.100    20587400.121 9  84301991.88649
        54.900    20587399.45749  20587396.430 7  80789337.924 7        42.500
 21 12 14  1 26 30.0000000  0  9G16G01G21G32G08G23G22G10G27
  23754928.844 7 124833009.145 7        41.800                    97272461.76647
        25.600    23754932.42247
  23619501.922 6 124121360.717 6        40.100    23619509.945 6  96717960.90146
        23.600    23619509.69946  23619505.340 2  92688026.854 2        31.500
  21853117.477 8 114838930.898 8        47.100                    89484901.68349
        37.900    21853119.87149
  24005186.742 7 126148099.578 7        41.600    24005192.766 7  98297263.72849
        38.000    24005192.56649  24005188.098 1  94201519.13511        29.900
  20451375.117 9 107472711.542 9        50.900    20451382.398 9  83745018.44349
        55.700    20451381.20749  20451377.984 7  80255592.730 7        42.700
  23308433.602 7 122486660.228 7        41.100    23308437.809 7  95444166.81847
        28.000    23308437.48047  23308438.617 3  91467331.432 3        33.200
  24622209.195 3 129390587.61713        32.300                   100823841.86355
        19.300    24622212.67245
  21291519.758 9 111887698.353 9        50.900    21291526.055 9  87185258.43049
        55.000    21291526.04749  21291521.703 6  83552460.796 6        40.800
  20595486.273 9 108230068.244 9        51.000    20595492.785 9  84335130.64649
        55.000    20595492.39849  20595489.281 7  80821095.897 7        42.200
 21 12 14  1 27  0.0000000  0  9G16G01G21G32G08G23G22G10G27
  23775942.766 7 124943443.051 7        41.400                    97358514.14947
        26.800    23775946.91047
  23601189.117 6 124025126.230 6        40.700    23601197.180 6  96642973.06347
        25.500    23601197.25447  23601193.414 3  92616163.480 3        32.100
  21843556.555 8 114788689.870 8        47.600                    89445752.83949
        38.500    21843559.35949
  23988898.547 7 126062507.906 7        42.700    23988905.313 7  98230568.93249
        38.200    23988904.96949  23988901.383 1  94137603.27611        30.500
  20446826.586 9 107448807.139 9        50.900    20446833.566 9  83726391.62949
        55.000    20446832.36349  20446829.250 7  80237742.023 7        42.600
  23326289.688 6 122580496.476 6        40.600    23326294.289 7  95517285.96747
        26.700    23326294.04347  23326295.082 3  91537403.935 3        33.400
  24601090.094 5 129279597.08915        35.200                   100737355.75555
        18.300    24601091.41445
  21299098.836 9 111927527.278 9        51.300    21299105.102 9  87216293.95849
        54.900    21299105.10249  21299101.125 6  83582203.176 6        40.800
  20603664.281 9 108273043.653 9        52.200    20603670.801 9  84368617.96549
        55.000    20603670.29749  20603667.297 7  80853187.911 7        42.400
 21 12 14  1 27 30.0000000  0  9G16G01G21G32G08G23G22G10G27
  23796982.875 7 125054005.715 7        41.600                    97444666.86547
        25.700    23796986.41847
  23582902.102 6 123929028.532 6        39.400    23582910.836 6  96568091.79346
        24.100    23582910.26246  23582905.898 3  92544402.218 3        33.200
  21834039.508 8 114738678.579 8        47.400                    89406783.02249
        38.300    21834042.62149
  23972648.023 7 125977111.328 7        41.900    23972655.293 7  98164026.13449
        38.800    23972654.11349  23972651.293 3  94073833.026 3        32.100
  20442362.602 9 107425349.654 9        51.800    20442369.836 9  83708113.06049
        55.800    20442368.62149  20442365.281 7  80220225.055 7        42.600
  23344195.539 6 122674590.847 6        40.900    23344199.461 7  95590606.25047
        26.600    23344199.29347  23344200.699 3  91607669.215 3        33.200
  24579986.734 3 129168714.51913        32.200                   100650953.73055
        19.300    24579991.07845
  21306771.789 9 111967847.810 9        51.700    21306778.063 9  87247712.56249
        55.000    21306777.50449  21306773.836 6  83612312.678 6        40.800
  20611927.109 9 108316465.846 9        51.700    20611933.930 9  84402453.43249
        55.200    20611933.23049  20611930.152 7  80885613.581 7        42.600
 21 12 14  1 28  0.0000000  0  9G16G01G21G32G08G23G22G10G27
  23818046.234 7 125164694.446 7        41.600                    97530917.81647
        25.200    23818050.02347
  23564641.156 6 123833068.384 6        39.400    23564649.629 6  96493317.67646
        24.600    23564649.57846  23564646.141 3  92472743.732 3        32.800
  21824566.984 8 114688897.282 8        47.400                    89367992.41749
        38.500    21824569.57049
  23956434.781 6 125891912.711 6        40.300    23956442.238 7  98097637.62449
        37.600    23956441.32049  23956439.242 2  94010210.766 2        31.500
  20437983.898 9 107402340.092 9        51.400    20437991.020 9  83690183.52849
        55.500    20437989.97349  20437986.863 7  80203042.610 7        42.700
  23362149.633 6 122768940.703 6        40.800    23362154.594 7  95664125.63447
        27.000    23362153.91847  23362155.004 3  91678125.307 3        33.600
  24558909.156 3 129057941.862 3        33.200                   100564637.34245
        18.300    24558911.71545
  21314537.719 9 112008658.276 9        51.900    21314543.941 9  87279512.92449
        54.900    21314543.79349  21314539.773 6  83642788.021 6        40.700
  20620275.281 9 108360334.308 9        52.800    20620281.652 9  84436636.63149
        55.000    20620281.16449  20620278.262 7  80918372.472 7        42.500
 21 12 14  1 28 30.0000000  0  9G16G01G21G32G08G23G22G10G27
  23839132.570 7 125275506.211 7        41.100                    97617264.62947
        25.200    23839136.84847
  23546407.547 6 123737246.965 6        40.900    23546415.293 6  96418651.71147
        26.000    23546415.28947  23546412.188 3  92401188.838 3        33.800
  21815136.820 8 114639345.566 8        47.300                    89329380.71149
        38.200    21815140.27749
  23940260.773 7 125806915.462 7        41.400    23940267.688 7  98031406.00249
        37.900    23940266.87549  23940263.328 1  93946738.795 1        30.500
  20433690.914 9 107379779.983 9        50.800    20433697.941 9  83672604.21749
        55.500    20433697.06649  20433693.852 7  80186195.775 7        42.400
  23380151.859 6 122863543.942 6        40.700    23380156.570 7  95737842.42947
        27.400    23380156.09847  23380157.203 3  91748770.543 3        33.100
  24537851.344 3 128947281.15813        32.600                   100478408.23855
        17.800    24537853.82045
  21322396.781 9 112049957.266 9        50.500    21322402.547 9  87311693.95849
        54.900    21322402.64149  21322398.473 6  83673628.168 6        39.900
  20628708.008 9 108404648.920 9        50.900    20628714.426 9  84471167.49049
        55.200    20628713.85949  20628711.000 7  80951464.535 7        42.500
 21 12 14  1 29  0.0000000  0  9G16G01G21G32G08G23G22G10G27
  23860242.484 7 125386438.301 7        41.500                    97703705.21046
        24.700    23860246.13746
  23528199.297 6 123641564.762 6        40.400    23528207.176 6  96344094.19946
        22.500    23528206.67646  23528203.176 3  92329737.953 3        32.500
  21805751.672 8 114590023.840 8        47.500                    89290948.21449
        38.600    21805754.36349
  23924125.742 7 125722122.297 7        41.700    23924132.297 6  97965333.41049
        38.300    23924131.40649  23924127.477 1  93883419.24411        30.400
  20429483.594 9 107357670.754 9        50.900    20429490.766 9  83655376.24849
        55.800    20429489.75049  20429486.750 7  80169685.640 7        42.900
  23398202.031 7 122958397.810 7        41.300    23398206.477 7  95811754.54447
        26.400    23398205.79347  23398207.398 3  91819602.949 3        33.700
  24516815.703 3                        33.500
        17.800    24516817.38745
  21330348.375 9 112091742.832 9        51.100    21330354.293 9  87344254.13949
        54.900    21330354.40249  21330349.660 6  83704831.698 6        40.800
  20637225.711 9 108449408.980 9        52.500    20637232.047 9  84506045.44149
        54.900    20637231.48449  20637228.688 7  80984889.236 7        42.600
 21 12 14  1 29 30.0000000  0  9G16G01G21G32G08G23G22G10G27
  23881374.492 7 125497487.981 7        42.000                    97790237.42647
        25.500    23881378.19147
  23510017.898 6 123546022.721 6        39.200    23510026.305 6  96269645.88846
        22.800    23510026.12946  23510022.555 3  92258391.637 3        33.300
  21796409.664 8 114540932.089 8        47.500                    89252694.90249
        38.800    21796412.53549
  23908028.750 7 125637536.153 7        41.500    23908036.285 7  97899422.12549
        38.800    23908035.25449  23908031.957 2  93820254.20212        31.000
  20425362.492 9 107336013.458 9        51.500    20425369.473 9  83638500.42949
        55.400    20425368.35949  20425365.402 7  80153512.984 7        42.800
  23416299.602 7 123053499.711 7        41.100    23416303.863 7  95885859.91247
        27.100    23416303.19147  23416304.469 3  91890620.613 3        33.900
  24495800.438 3                        32.300
        17.800    24495803.40245
  21338391.875 9 112134013.311 9        51.400    21338398.137 9  87377192.17549
        54.900    21338398.15249  21338394.020 6  83736397.300 6        40.100
  20645828.125 9 108494613.985 9        52.700    20645834.254 9  84541270.10449
        55.000    20645833.68049  20645830.957 7  81018646.209 7        42.700
 21 12 14  1 30  0.0000000  0  9G16G01G21G32G08G23G22G10G27
  23902528.352 7 125608652.326 7        41.400                    97876858.97347
        25.500    23902532.14547
  23491863.781 6 123450621.473 6        40.000    23491872.184 6  96195307.31446
        24.000    23491871.46546  23491867.641 3  92187150.514 3        32.200
  21787111.539 8 114492070.186 8        47.500                    89214620.70949
        38.900    21787114.57449
  23891972.055 7 125553159.994 7        41.300    23891980.273 7  97833674.50549
        38.000    23891978.86749  23891975.840 2  93757246.083 2        31.700
  20421327.297 9 107314808.986 9        51.300    20421334.445 9  83621977.46749
        55.200    20421333.15649  20421330.082 7  80137678.472 7        42.100
  23434443.109 6 123148847.160 6        40.800    23434448.285 7  95960156.64447
        28.800    23434447.83647  23434447.949 3  91961821.641 3        33.100
  24474809.992 4 128615989.93114        34.500                   100220259.19056
        21.100    24474811.46946
  21346527.711 9 112176766.949 9        50.200    21346533.945 9  87410506.70749
        54.900    21346533.68849  21346529.461 6  83768323.725 6        40.400
  20654514.664 9 108540263.439 9        50.800    20654521.277 9  84576841.10449
        54.900    20654520.59049  20654517.355 7  81052735.059 7        42.200
 21 12 14  1 30 30.0000000  0  9G16G01G21G32G08G23G22G10G27
  23923704.578 7 125719929.231 7        41.200                    97963568.26847
        25.300    23923706.99647
  23473736.719 7 123355361.800 7        41.100    23473745.500 7  96121079.04347
        25.800    23473745.20347  23473741.211 3  92116015.094 3        32.900
  21777857.273 8 114443438.112 8        47.600                    89176725.59649
        39.100    21777860.43449
  23875957.047 7 125468996.843 7        41.500    23875964.063 7  97768092.82849
        38.700    23875963.04749  23875960.262 2  93694396.96412        31.400
  20417378.680 9 107294058.762 9        51.600    20417385.699 9  83605808.46049
        55.600    20417384.66849  20417381.551 7  80122183.154 7        42.600
  23452633.422 6 123244437.629 6        40.900    23452638.398 7  96034642.68047
        27.600    23452638.28147  23452638.703 3  92033204.119 3        32.800
  24453840.039 5 128505796.01515        35.200                   100134393.76256
        20.400    24453842.16846
  21354755.234 9 112220001.960 9        51.000    21354761.445 9  87444196.32449
        55.000    21354760.96149  21354757.133 6  83800609.601 6        40.400
  20663286.055 9 108586356.760 9        52.200    20663292.453 9  84612757.96649
        55.100    20663291.88349  20663288.832 7  81087155.390 7        42.400
 21 12 14  1 31  0.0000000  0  9G16G01G21G32G08G23G22G10G27
  23944899.555 6 125831315.469 6        40.700                    98050362.69446
        22.800    23944903.35546
  23455636.383 6 123260244.624 6        40.100    23455644.461 7  96046961.79447
        25.100    23455644.50047  23455640.781 3  92044986.130 3        33.100
  21768646.359 9 114395035.871 9        48.000                    89139009.57049
        38.400    21768649.76649
  23859982.016 7 125385049.756 7        41.900    23859989.945 7  97702679.50449
        38.500    23859988.30549  23859985.293 1  93631709.242 1        30.400
  20413516.813 9 107273763.988 9        52.000    20413523.656 9  83589994.35049
        56.200    20413522.70349  20413519.652 7  80107027.988 7        42.500
  23470869.766 7 123340268.686 7        41.600    23470874.223 7  96109316.23447
        28.300    23470874.12147  23470874.938 3  92104766.261 3        33.000
  24432893.531 4 128395723.99114        34.700                   100048623.37055
        19.600    24432895.96145
  21363073.859 9 112263716.740 9        50.500    21363079.832 9  87478259.78549
        54.900    21363079.56349  21363075.781 6  83833253.759 6        40.500
  20672141.563 9 108632893.581 9        52.500    20672148.043 9  84649020.41249
        55.000    20672147.42649  20672144.707 7  81121906.875 7        42.600
 21 12 14  1 31 30.0000000  0  9G16G01G21G32G08G23G22G10G27
  23966115.984 6 125942808.440 6        39.600                    98137240.34246
        24.400    23966119.74646
  23437564.328 6 123165270.815 6        40.800    23437571.656 6  95972956.28047
        25.800    23437571.38347  23437567.832 4  91974064.157 4        34.000
  21759479.609 9 114346863.395 9        48.100                    89101472.59349
        38.700    21759482.73049
  23844049.180 7 125301321.694 7        41.700    23844056.246 6  97637436.86049
        38.500    23844054.93449  23844052.059 1  93569185.042 1        30.900
  20409741.719 9 107253925.950 9        51.400    20409748.609 9  83574536.13649
        56.300    20409747.68849  20409744.590 7  80092213.872 7        42.900
  23489150.703 6 123436337.906 6        40.900    23489155.629 7  96184175.36947
        27.400    23489154.71547  23489156.867 3  92176506.263 3        33.400
  24411971.563 5 128285775.369 5        35.700                    99962949.07546
        21.500    24411973.75046
  21371483.328 9 112307909.585 9        50.800    21371489.676 9  87512695.77149
        54.900    21371489.33649  21371485.379 6  83866254.902 6        40.200
  20681081.406 9 108679873.383 9        52.500    20681088.145 9  84685628.03349
        55.000    20681087.42649  20681084.359 7  81156989.192 7        42.600
 21 12 14  1 32  0.0000000  0  9G16G01G21G32G08G23G22G10G27
  23987352.086 6 126054405.217 6        39.300                    98224198.85646
        24.700    23987355.82846
  23419518.273 6 123070441.181 6        39.500    23419526.879 7  95899063.14547
        26.000    23419526.20347  23419521.594 3  91903249.900 3        32.900
  21750356.406 9 114298920.814 9        48.200                    89064114.75349
        38.600    21750359.23049
  23828158.094 6 125217815.751 6        40.200    23828166.047 7  97572367.29949
        38.500    23828165.16449  23828161.875 2  93506826.686 2        31.200
  20406053.594 9 107234545.589 9        50.700    20406060.898 9  83559434.55949
        56.100    20406059.69549  20406056.480 7  80077741.520 7        42.600
  23507477.547 7 123532642.828 7        41.100    23507481.672 7  96259218.16347
        27.700    23507480.98847  23507482.961 3  92248422.266 3        33.400
  24391072.398 4 128175952.119 4        34.500                    99877372.55646
        20.600    24391075.01646
  21379983.805 9 112352578.696 9        50.500    21379989.844 9  87547502.87649
        54.900    21379989.71549  21379985.461 6  83899611.709 6        40.300
  20690105.703 9 108727295.602 9        51.900    20690112.117 9  84722580.39849
        54.900    20690111.76249  20690108.473 7  81192401.888 7        42.300
 21 12 14  1 32 30.0000000  0  9G16G01G21G32G08G23G22G10G27
  24008607.516 6 126166103.214 6        40.100                    98311236.25646
        23.000    24008611.24246
  23401499.727 6 122975756.267 6        40.600    23401508.859 7  95825282.72647
        26.400    23401507.77747  23401504.355 3  91832543.724 3        33.700
  21741277.195 8 114251208.508 8        47.800                    89026936.33549
        39.500    21741279.77049
  23812310.547 7 125134534.610 7        42.500    23812318.473 7  97507472.91149
        39.400    23812317.43449  23812313.594 2  93444636.23812        31.400
  20402453.305 9 107215624.201 9        52.000    20402460.352 9  83544690.61549
        56.400    20402459.04749  20402455.738 7  80063611.907 7        43.000
  23525847.547 7 123629180.692 7        41.200    23525852.676 7  96334442.47347
        26.200    23525851.87547  23525853.348 3  92320512.226 3        33.100
  24370198.813 4 128066256.09114        34.900                    99791895.12855
        19.900    24370200.21545
  21388574.094 9 112397722.136 9        50.200    21388580.391 9  87582679.58149
        54.900    21388580.32049  21388575.898 6  83933322.715 6        40.200
  20699214.086 9 108775159.515 9        53.000    20699220.422 9  84759876.94849
        54.900    20699220.00049  20699216.840 7  81228144.398 7        42.200
 21 12 14  1 33  0.0000000  0  9G16G01G21G32G08G23G22G10G27
  24029882.680 6 126277899.844 6        39.400                    98398350.49146
        23.800    24029886.04746
  23383510.250 7 122881217.032 7        41.000    23383517.621 6  95751615.85047
        26.000    23383517.08647  23383514.211 3  91761946.244 3        33.400
  21732241.438 8 114203726.143 8        47.600                    88989937.11149
        38.900    21732244.41049
  23796506.602 7 125051481.395 7        42.900    23796513.578 7  97442756.13549
        39.700    23796512.52049  23796509.918 2  93382615.935 2        31.800
  20398940.086 9 107197163.268 9        52.600    20398946.977 9  83530305.47149
        55.600    20398945.90249  20398942.895 7  80049826.143 7        43.100
  23544262.094 7 123725949.109 7        41.000    23544267.004 7  96409846.40647
        27.300    23544266.19147  23544267.734 3  92392774.308 3        33.000
  24349348.250 4 127956689.110 4        34.800                    99706518.24846
        20.600    24349350.58646
  21397254.594 9 112443338.159 9        50.200    21397260.766 9  87618224.52649
        55.000    21397260.74649  21397256.359 6  83967386.624 6        40.400
  20708406.219 9 108823464.617 9        50.800    20708412.824 9  84797517.27749
        54.900    20708412.10249  20708408.961 7  81264216.390 7        42.400
 21 12 14  1 33 30.0000000  0  9G16G01G21G32G08G23G22G10G27
  24051174.820 6 126389792.350 6        39.400                    98485539.44146
        24.400    24051178.36346
  23365546.859 6 122786824.208 6        39.900    23365555.621 7  95678063.04847
        25.300    23365555.30947  23365551.516 3  91691458.188 3        33.100
  21723249.727 8 114156473.452 8        47.800                    88953116.84249
        39.400    21723252.46949
  23780745.516 7 124968659.025 7        42.300    23780752.922 7  97378219.22049
        38.500    23780751.50049  23780748.871 2  93320768.115 2        31.000
  20395514.828 9 107179163.545 9        51.200    20395521.984 9  83516279.71349
        55.600    20395520.86749  20395517.742 7  80036384.778 7        42.700
  23562719.742 7 123822945.611 7        41.700    23562724.977 7  96485428.09947
        27.100    23562723.96547  23562725.074 3  92465206.782 3        32.900
  24328523.695 4 127847253.30514        34.200                    99621243.59256
        20.400    24328525.54746
  21406024.789 9 112489424.989 9        51.000    21406030.641 9  87654136.34349
        54.900    21406030.57049  21406026.488 6  84001802.117 6        40.500
  20717682.273 9 108872210.312 9        52.800    20717688.652 9  84835500.92049
        55.000    20717688.04749  20717684.871 7  81300617.375 7        42.600
 21 12 14  1 34  0.0000000  0  9G16G01G21G32G08G23G22G10G27
  24072484.469 6 126501777.727 6        38.600                    98572800.74946
        22.800    24072488.58246
  23347613.250 7 122692578.678 7        41.400    23347621.324 6  95604625.03547
        25.900    23347620.46947  23347617.125 3  91621080.148 3        33.100
  21714301.563 8 114109450.680 8        47.900                    88916475.73749
        39.600    21714304.34849
  23765029.273 7 124886070.532 7        42.600    23765036.621 6  97313864.55549
        38.100    23765035.24649  23765033.160 1  93259094.948 1        30.300
  20392177.922 9 107161626.203 9        51.500    20392184.691 9  83502614.24349
        55.500    20392183.48449  20392180.191 7  80023288.723 7        42.700
  23581220.336 7 123920167.766 7        41.400    23581225.285 7  96561185.60747
        27.200    23581224.76647  23581226.043 3  92537807.808 3        33.600
  24307723.125 4 127737950.522 4        34.200                    99536072.56646
        21.100    24307725.94546
  21414883.977 9 112535980.869 9        50.500    21414890.000 9  87690413.65049
        54.900    21414889.85249  21414885.895 6  84036567.866 6        39.800
  20727041.883 9 108921396.125 9        52.900    20727048.367 9  84873827.51349
        55.100    20727047.65249  20727044.945 7  81337347.015 7        42.200
 21 12 14  1 34 30.0000000  0  9G16G01G21G32G08G23G22G10G27
  24093810.656 6 126613853.132 6        38.600                    98660132.23746
        22.300    24093815.27046
  23329707.328 7 122598481.475 7        41.100    23329715.051 7  95531302.58947
        27.300    23329715.05547  23329711.047 3  91550812.754 3        33.100
  21705397.211 9 114062658.087 9        48.200                    88880013.99549
        39.100    21705400.18449
  23749359.180 7 124803719.134 7        42.900    23749366.039 7  97249694.65649
        39.100    23749364.95349  23749361.910 1  93197598.724 1        30.900
  20388928.773 9 107144552.807 9        52.400    20388935.891 9  83489310.29049
        56.000    20388934.68049  20388931.457 7  80010539.100 7        42.500
  23599763.867 7 124017613.356 7        41.500    23599768.934 7  96637117.24547
        27.200    23599767.87147  23599769.457 3  92610575.514 3        33.400
  24286950.711 5 127628782.976 5        35.700                    99451006.93746
        21.300    24286951.80546
  21423832.125 9 112583004.214 9        50.400    21423838.281 9  87727055.21949
        55.000    21423837.85549  21423834.176 6  84071682.712 6        40.000
  20736485.109 9 108971021.653 9        52.500    20736491.781 9  84912496.75149
        55.000    20736491.06649  20736488.324 7  81374405.063 7        42.500
 21 12 14  1 35  0.0000000  0  9G16G01G21G32G08G23G22G10G27
  24115155.117 6 126726016.448 6        38.500                    98747532.23046
        22.500    24115158.94946
  23311828.883 6 122504532.637 6        40.900    23311837.289 7  95458095.74447
        26.400    23311837.25047  23311832.590 3  91480656.231 3        33.000
  21696536.453 9 114016095.086 9        49.500                    88843731.14849
        39.200    21696539.36749
  23733732.953 7 124721607.064 7        42.900    23733740.656 7  97185711.23149
        39.800    23733740.21549  23733736.305 2  93136281.31912        31.600
  20385768.078 9 107127943.215 9        52.100    20385775.230 9  83476367.74249
        56.700    20385774.03149  20385770.664 7  79998135.837 7        42.300
  23618349.258 7 124115279.141 7        41.700    23618354.148 7  96713220.46647
        27.000    23618353.37147  23618354.660 3  92683507.794 3        32.400
  24266202.297 5 127519751.943 5        35.700                    99366047.70746
        21.800    24266204.51246
  21432868.805 9 112630492.477 9        51.100    21432875.090 9  87764059.05449
        54.900    21432874.64149  21432870.762 6  84107144.716 6        40.300
  20746012.063 9 109021085.527 9        52.100    20746018.609 9  84951507.55349
        54.900    20746017.95749  20746015.121 7  81411790.384 7        42.100
 21 12 14  1 35 30.0000000  0  9G16G01G21G32G08G23G22G10G27
  24136516.305 6 126838265.052 6        39.200                    98834998.65846
        22.300    24136519.42646
  23293979.523 6 122410733.435 6        40.100    23293987.387 7  95385005.52947
        25.300    23293987.14847  23293984.430 3  91410611.468 3        33.400
  21687719.750 9 113969761.979 9        48.800                    88807627.43849
        39.200    21687722.31649
  23718154.203 7 124639737.735 7        43.600    23718161.227 7  97121916.96149
        39.500    23718160.53549  23718157.531 2  93075145.129 2        31.800
  20382695.969 9 107111799.585 9        51.100    20382702.996 9  83463788.28449
        55.600    20382702.06649  20382698.691 7  79986080.512 7        42.400
  23636975.422 7 124213163.162 7        41.300    23636980.809 7  96789493.70947
        26.800    23636979.46547  23636981.652 3  92756602.982 3        32.400
  24245481.086 5 127410859.628 5        35.600                    99281196.51746
        20.600    24245482.20746
  21441993.867 9 112678444.225 9        51.200    21441999.984 9  87801424.05449
        55.000    21441999.89849  21441995.918 6  84142952.829 6        40.200
  20755622.453 9 109071587.607 9        52.300    20755628.941 9  84990859.80649
        55.000    20755628.39549  20755625.531 7  81449502.967 7        42.100
 21 12 14  1 36  0.0000000  0  9G16G01G21G32G08G23G22G10G27
  24157892.383 6 126950595.387 6        38.600                    98922528.78146
        21.800    24157895.21946
  23276158.750 7 122317084.784 7        41.300    23276166.898 7  95312032.61047
        26.300    23276165.93047  23276162.750 3  91340679.083 3        33.700
  21678946.375 9 113923658.732 9        48.600                    88771702.84749
        38.700    21678949.39149
  23702621.203 7 124558114.161 7        42.200    23702628.879 7  97058314.18949
        38.600    23702627.53549  23702625.020 2  93014192.445 2        31.800
  20379712.695 9 107096122.516 9        52.000    20379719.836 9  83451572.38349
        56.400    20379718.81349  20379715.426 7  79974373.614 7        42.400
  23655643.711 6 124311262.951 6        40.600    23655648.480 7  96865935.10647
        25.300    23655647.27347  23655648.957 3  92829859.335 3        32.600
  24224786.148 4 127302107.895 4        34.600                    99196454.92946
        20.600    24224787.98846
  21451206.172 9 112726857.672 9        50.000    21451212.871 9  87839148.81749
        54.900    21451212.64549  21451208.234 6  84179105.741 6        39.700
  20765315.867 9 109122527.267 9        51.100    20765322.488 9  85030553.04249
        55.000    20765321.86349  20765318.934 7  81487542.303 7        42.100
 21 12 14  1 36 30.0000000  0  9G16G01G21G32G08G23G22G10G27
  24179282.250 5 127063004.907 5        37.700                    99010120.63646
        22.000    24179286.23446
  23258366.891 6 122223587.373 6        40.000    23258374.523 7  95239177.52047
        26.400    23258373.84447  23258370.500 4  91270859.656 4        34.000
  21670216.930 9 113877785.167 9        48.800                    88735957.21749
        39.200    21670220.05149
  23687136.508 7 124476739.307 7        43.200    23687143.371 7  96994905.21949
        39.000    23687142.22749  23687140.258 3  92953425.54913        32.100
  20376818.539 9 107080913.275 9        52.400    20376825.746 9  83439721.03049
        56.100    20376824.63749  20376821.316 7  79963016.051 7        43.200
  23674352.313 7 124409576.138 7        42.100    23674356.633 7  96942542.76747
        25.200    23674356.08247  23674357.258 3  92903275.016 3        32.800
  24204117.828 3 127193498.579 3        33.200                    99111824.30446
        20.600    24204120.52046
  21460506.961 9 112775731.039 9        51.500    21460513.137 9  87877231.96049
        54.800    21460512.89549  21460508.656 6  84215602.073 6        40.200
  20775092.453 9 109173903.930 9        52.500    20775098.824 9  85070586.78849
        55.000    20775098.43449  20775095.730 7  81525907.972 7        42.600
 21 12 14  1 37  0.0000000  0  9G16G01G21G32G08G23G22G10G27
  24200688.070 6 127175491.213 6        38.700                    99097772.27846
        22.000    24200691.86746
  23240603.898 6 122130241.877 6        40.800    23240611.668 7  95166440.84347
        26.200    23240611.67247  23240607.734 3  91201153.69113        33.800
  21661531.484 9 113832141.532 9        48.100                    88700390.77049
        39.200    21661534.13749
  23671699.430 7 124395615.953 7        42.900    23671706.340 7  96931692.21949
        39.200    23671705.82449  23671702.445 2  92892846.41812        31.100
  20374013.453 9 107066172.761 9        51.800    20374020.602 9  83428234.90849
        56.100    20374019.53549  20374016.359 7  79952008.546 7        42.500
  23693100.227 6 124508099.966 6        40.900    23693105.012 6  97019314.58646
        23.500    23693104.33246  23693105.512 3  92976848.029 3        32.400
  24183478.250 4 127085033.492 4        34.800                    99027306.08546
        20.400    24183479.58646
  21469894.281 9 112825062.209 9        50.700    21469900.379 9  87915671.83149
        54.900    21469900.26649  21469896.383 6  84252440.267 6        40.500
  20784952.383 9 109225716.687 9        52.800    20784958.813 9  85110960.36049
        55.000    20784958.27749  20784955.344 7  81564599.322 7        42.100
 21 12 14  1 37 30.0000000  0  9G16G01G21G32G08G23G22G10G27
  24222108.477 6 127288051.919 6        38.900                    99185481.90646
        22.800    24222111.16846
  23222869.945 6 122037049.072 6        40.900    23222877.688 7  95093823.09747
        27.600    23222877.18847  23222874.047 3  91131561.645 3        33.400
  21652889.242 9 113786728.036 9        48.900                    88665003.63549
        39.500    21652892.10949
  23656309.992 7 124314746.969 7        42.900    23656317.797 7  96868677.43349
        38.800    23656316.85549  23656313.707 2  92832457.255 2        31.600
  20371297.883 9 107051902.168 9        51.100    20371304.867 9  83417114.95849
        56.900    20371303.78949  20371300.887 7  79941351.915 7        42.500
  23711888.813 7 124606832.031 7        41.700    23711893.316 6  97096248.66346
        22.600    23711891.97746  23711893.703 2  93050576.438 2        31.800
  24162864.938 5 126976714.391 5        35.500                    98942901.60646
        21.300    24162867.45346
  21479368.328 9 112874849.212 9        50.800    21479374.527 9  87954466.89449
        54.900    21479374.38349  21479370.246 6  84289618.899 6        39.600
  20794894.773 9 109277964.814 9        51.700    20794901.281 9  85151673.16949
        55.000    20794900.73049  20794897.813 7  81603615.758 7        42.100
 21 12 14  1 38  0.0000000  0  9G16G01G21G32G08G23G22G10G27
  24243541.008 6 127400684.218 6        38.800                    99273247.31846
        22.200    24243544.42246
  23205164.273 6 121944009.852 6        39.400    23205173.047 7  95021325.06747
        26.700    23205172.19147  23205168.984 3  91062084.427 3        33.700
  21644291.047 9 113741544.591 9        48.200                    88629795.77149
        40.000    21644294.18449
  23640970.688 7 124234135.486 7        43.600    23640977.742 7  96805863.30849
        39.000    23640976.73049  23640973.406 2  92772260.367 2        31.700
  20368672.047 9 107038102.786 9        51.600    20368679.152 9  83406362.19049
        55.800    20368677.95349  20368674.746 7  79931047.187 7        42.300
  23730716.258 7 124705770.032 7        42.500    23730720.762 7  97173343.24247
        26.500    23730719.77347  23730721.395 3  93124458.728 3        32.700
  24142281.297 5 126868543.859 5        37.400                    98858612.87946
        22.200    24142283.02746
  21488929.070 9 112925090.423 9        49.900    21488935.348 9  87993615.88449
        54.800    21488934.78549  21488931.066 6  84327136.652 6        40.100
  20804920.086 9 109330647.854 9        52.000    20804926.605 9  85192724.88449
        54.900    20804925.82449  20804923.227 7  81642956.984 7        41.800
 21 12 14  1 38 30.0000000  0  9G16G01G21G32G08G23G22G10G27
  24264987.508 5 127513384.879 5        37.900                    99361066.01746
        22.300    24264990.70746
  23187488.984 6 121851124.870 6        40.400    23187497.285 7  94948947.18347
        28.100    23187496.98847  23187492.457 3  90992722.305 3        33.600
  21635736.836 9 113696590.879 9        48.200                    88594766.92049
        39.200    21635739.81649
  23625679.781 7 124153784.231 7        42.300    23625687.426 7  96743251.94449
        38.700    23625686.25849  23625683.688 3  92712257.823 3        32.000
  20366135.789 9 107024774.701 9        51.300    20366142.723 9  83395976.66849
        56.500    20366141.70749  20366138.574 7  79921094.390 7        42.600
  23749582.063 7 124804911.318 7        41.700    23749587.102 7  97250596.17547
        26.300    23749586.43447  23749587.262 2  93198492.804 2        31.700
  24121725.078 5 126760523.038 5        35.800                    98774440.81546
        21.700    24121727.57046
  21498575.688 9 112975783.647 9        50.100    21498581.664 9  88033117.09649
        54.800    21498581.52049  21498577.223 6  84364991.983 6        40.400
  20815027.805 9 109383764.832 9        50.300    20815034.207 9  85234114.73549
        55.200    20815033.74249  20815030.488 7  81682622.267 7        42.200
 21 12 14  1 39  0.0000000  0  9G16G01G21G32G08G23G22G10G27
  24286446.164 6 127626151.157 6        38.500                    99448935.84646
        21.700    24286449.52346
  23169843.500 6 121758395.296 6        39.700    23169851.582 7  94876690.43247
        26.900    23169851.48447  23169847.168 3  90923476.258 3        33.800
  21627226.383 9 113651867.363 9        48.500                    88559917.43149
        39.500    21627228.93049
  23610439.359 7 124073696.578 7        43.300    23610446.801 7  96680845.98449
        39.500    23610446.21149  23610444.004 3  92652452.133 3        32.200
  20363689.750 9 107011920.246 9        51.600    20363696.602 9  83385960.20649
        55.900    20363695.68849  20363692.293 7  79911495.256 7        43.100
  23768486.602 6 124904253.926 6        40.400    23768490.793 7  97328005.96347
        25.800    23768490.55147  23768490.777 1  93272677.288 1        30.700
  24101198.492 5 126652654.366 5        35.500                    98690387.30446
        22.600    24101200.98446
  21508307.844 9 113026927.425 9        50.800    21508314.168 9  88072969.39949
        54.800    21508314.19149  21508309.406 6  84403183.791 6        39.900
  20825218.063 9 109437315.490 9        52.100    20825224.500 9  85275842.51049
        54.900    20825224.03549  20825220.965 7  81722611.381 7        42.100
 21 12 14  1 39 30.0000000  0  9G16G01G21G32G08G23G22G10G27
  24307916.711 6 127738980.510 6        38.500                    99536854.79746
        21.700    24307920.02346
  23152227.344 6 121665821.670 6        40.200    23152234.949 7  94804555.16747
        27.000    23152234.88347  23152230.859 3  90854346.620 3        32.700
  21618759.242 8 113607373.660 8        47.900                    88525247.01249
        39.800    21618762.25449
  23595250.148 7 123993875.107 7        43.400    23595257.531 7  96618647.44549
        39.400    23595256.79349  23595254.004 3  92592845.187 3        32.500
  20361334.023 9 106999539.664 9        50.800    20361340.766 9  83376312.99649
        55.600    20361339.75049  20361336.629 7  79902250.035 7        42.800
  23787428.391 6 125003795.029 6        40.900    23787432.746 6  97405570.44847
        25.400    23787432.32447  23787432.477 1  93347009.854 1        30.900
  24080701.047 5 126544939.038 5        35.500                    98606453.31546
        22.600    24080703.11346
  21518125.633 9 113078519.532 9        49.500    21518131.766 9  88113171.03149
        54.600    21518131.72749  21518127.227 6  84441710.356 6        39.900
  20835490.727 9 109491298.752 9        50.400    20835497.406 9  85317907.38749
        55.100    20835496.66849  20835493.512 7  81762923.555 7        42.000
 21 12 14  1 40  0.0000000  0  9G16G01G21G32G08G23G22G10G27
  24329399.797 6 127851871.171 6        38.700                    99624821.52446
        22.500    24329403.20746
  23134641.313 6 121573404.737 6        39.600    23134648.621 7  94732542.01647
        28.100    23134648.08247  23134644.430 4  90785334.020 4        34.100
  21610336.328 9 113563109.841 9        48.200                    88490755.74649
        39.800    21610339.34849
  23580111.648 7 123914322.817 7        43.300    23580119.301 7  96556658.65449
        39.700    23580118.37149  23580114.926 2  92533439.308 2        31.900
  20359068.289 9 106987634.558 9        50.900    20359075.137 9  83367036.27849
        56.000    20359074.19949  20359071.008 7  79893359.843 7        42.900
  23806407.445 6 125103532.248 6        39.600    23806412.371 6  97483287.77046
        23.600    23806411.43046  23806412.773 2  93421489.02712        31.200
  24060232.461 4 126437379.372 4        34.800                    98522640.59646
        22.600    24060234.89546
  21528028.297 9 113130558.034 9        51.200    21528034.355 9  88153720.51649
        54.800    21528034.43049  21528029.719 6  84480570.254 6        39.800
  20845845.836 9 109545713.955 9        51.600    20845852.141 9  85360308.82849
        55.100    20845851.57449  20845848.676 7  81803558.260 7        41.800
 21 12 14  1 40 30.0000000  0 10G16G01G21G32G08G14G23G22G10G27
  24350892.492 6 127964819.612 6        38.100                    99712833.31746
        21.300    24350896.39846
  23117084.750 6 121481145.153 6        39.600    23117092.180 7  94660651.46347
        26.500    23117091.96547  23117088.754 4  90716438.928 4        34.000
  21601956.453 9 113519075.466 9        48.300                    88456443.24749
        40.200    21601959.87549
  23565025.688 7 123835042.386 7        43.900    23565032.961 7  96494881.70849
        39.900    23565031.61349  23565028.941 2  92474236.367 2        31.800
  20356893.211 9 106976204.518 9        51.100    20356900.168 9  83358129.74749
        55.600    20356899.13349  20356895.922 7  79884824.418 7        43.000
  25250996.570 6 132694872.10816        38.400    25251000.461 5 103398624.01956
        20.600    25251000.12946
  23825423.797 6 125203462.974 6        39.900    23825428.602 6  97561155.87546
        24.900    23825428.23846  23825429.035 2  93496112.601 2        31.200
  24039795.711 5 126329977.000 5        35.800                    98438950.45646
        22.300    24039797.03146
  21538015.320 9 113183040.793 9        50.200    21538021.555 9  88194616.17049
        54.600    21538021.35249  21538017.348 6  84519761.923 6        40.000
  20856282.672 9 109600560.086 9        51.900    20856288.996 9  85403046.06149
        55.000    20856288.48049  20856285.469 7  81844514.789 7        41.900
 21 12 14  1 41  0.0000000  0 10G16G01G21G32G08G14G23G22G10G27
  24372396.320 5 128077823.026 5        37.200                    99800887.94146
        21.500    24372400.18046
  23099558.297 6 121389043.881 6        39.000    23099566.473 7  94588884.29247
        27.800    23099565.57047  23099561.801 3  90647662.058 3        32.800
  21593620.602 9 113475271.227 9        49.600                    88422310.08649
        39.600    21593623.85249
  23549990.891 7 123756036.945 7        43.100    23549998.594 7  96433319.02649
        39.200    23549997.35949  23549994.480 3  92415238.818 3        32.100
  20354808.688 9 106965251.455 9        52.500    20354815.871 9  83349594.89649
        56.300    20354814.93449  20354811.516 7  79876645.172 7        42.600
  25233997.930 3 132605548.789 3        33.700    25234002.875 5 103329021.35245
        16.300    25234002.16045
  23844476.398 6 125303584.987 6        40.200    23844481.086 6  97639173.03146
        23.400    23844480.43846  23844481.934 3  93570879.027 3        32.100
  24019387.836 5 126222734.063 5        35.700                    98355384.56846
        21.100    24019389.57846
  21548086.836 9 113235966.087 9        49.600    21548092.875 9  88235856.65649
        54.600    21548092.50449  21548088.547 6  84559284.070 6        40.100
  20866801.219 9 109655836.647 9        50.300    20866807.953 9  85446118.69549
        54.900    20866807.39849  20866804.469 7  81885792.689 7        42.300
 21 12 14  1 41 30.0000000  0 10G16G01G21G32G08G14G23G22G10G27
  24393911.039 6 128190878.693 6        38.200                    99888983.21346
        21.100    24393913.54746
  23082061.969 6 121297101.851 6        39.900    23082069.477 7  94517241.19447
        27.900    23082069.88347  23082066.109 3  90579004.11113        33.800
  21585328.898 9 113431697.026 9        48.200                    88388356.17349
        39.200    21585331.70349
  23535009.438 7 123677309.592 7        42.900    23535016.645 7  96371973.04449
        39.600    23535015.87949  23535013.082 2  92356448.906 2        31.500
  20352815.570 9 106954776.887 9        51.500    20352822.742 9  83341432.89149
        56.000    20352821.70749  20352818.523 7  79868823.265 7        43.000
  25217059.844 6 132516534.756 6        39.000    25217064.234 6 103259659.73046
        21.100    25217063.40646
  23863564.805 6 125403896.028 6        40.100    23863568.988 6  97717337.47746
        22.500    23863568.90246  23863570.375 2  93645786.586 2        31.900
  23999010.984 5 126115652.496 5        37.300                    98271944.39046
        21.300    23999012.35946
  21558242.109 9 113289332.128 9        50.300    21558248.172 9  88277440.57749
        54.700    21558248.02749  21558243.715 6  84599135.329 6        40.200
  20877402.055 9 109711542.979 9        51.200    20877408.340 9  85489526.21749
        55.600    20877407.91849  20877405.082 7  81927391.590 7        41.200
 21 12 14  1 42  0.0000000  0 10G16G01G21G32G08G14G23G22G10G27
  24415433.445 5 128303984.406 5        37.600                    99977117.53946
        20.600    24415437.02346
  23064596.703 6 121205319.652 6        40.400    23064604.738 7  94445722.61947
        29.600    23064604.73447  23064600.777 3  90510465.490 3        33.900
  21577081.078 9 113388352.586 9        49.300                    88354581.29349
        39.600    21577083.58649
  23520081.938 7 123598862.920 7        43.400    23520089.375 7  96310845.77249
        39.900    23520087.92649  23520085.422 2  92297868.611 2        31.800
  20350913.461 9 106944780.499 9        51.900    20350920.551 9  83333643.48649
        56.100    20350919.42249  20350916.137 7  79861358.428 7        43.000
  25200179.945 5 132427832.001 5        37.700    25200184.703 5 103190540.62945
        19.300    25200183.77345
  23882689.000 6 125504393.409 6        40.400    23882693.852 6  97795647.12746
        22.000    23882692.78146  23882694.691 3  93720833.356 3        32.200
  23978665.320 5 126008733.810 5        36.900                    98188631.11846
        21.800    23978666.69546
  21568480.586 9 113343136.591 9        49.700    21568486.777 9  88319366.13149
        54.500    21568486.50849  21568482.758 6  84639313.986 6        39.800
  20888084.031 9 109767678.040 9        50.100    20888090.801 9  85533267.81049
        54.900    20888090.05949  20888086.813 7  81969310.592 7        41.900
 21 12 14  1 42 30.0000000  0 10G16G01G21G32G08G14G23G22G10G27
  24436965.453 5 128417137.826 5        36.700                   100065288.99045
        19.300    24436968.70345
  23047160.781 6 121113698.171 6        39.500    23047169.754 7  94374329.29047
        28.500    23047169.69547  23047165.078 4  90442046.854 4        34.400
  21568876.555 9 113345237.860 9        49.500                    88320985.41649
        40.500    21568879.09849
  23505208.188 7 123520700.062 7        43.600    23505215.941 7  96249939.64849
        40.300    23505214.26649  23505211.445 2  92239500.219 2        31.700
  20349102.523 9 106935264.393 9        52.000    20349109.621 9  83326228.33549
        55.600    20349108.50849  20349105.184 7  79854252.234 7        43.000
  25183360.047 5 132339443.625 5        35.300    25183365.188 6 103121666.60845
        18.600    25183364.68445
  23901847.656 6 125605074.952 6        40.300    23901852.688 6  97874100.28146
        23.400    23901851.87546  23901853.660 3  93796017.623 3        32.700
  23958350.266 5 125901980.034 5        37.300                    98105446.37946
        22.500    23958352.14846
  21578802.313 9 113397377.772 9        50.800    21578808.613 9  88361631.98649
        54.600    21578808.49249  21578804.020 6  84679818.768 6        39.600
  20898847.695 9 109824241.221 9        52.100    20898854.293 9  85577342.99949
        55.200    20898853.58249  20898850.578 7  82011549.321 7        42.100
 21 12 14  1 43  0.0000000  0 10G16G01G21G32G08G14G23G22G10G27
  24458506.602 5 128530335.660 5        37.500                   100153495.16246
        21.500    24458509.82846
  23029756.789 6 121022238.131 6        39.900    23029764.688 7  94303061.74447
        27.200    23029764.68847  23029760.844 4  90373748.824 4        34.100
  21560715.516 9 113302353.430 9        49.200                    88287568.98749
        39.600    21560718.72349
  23490389.031 7 123442823.750 7        44.100    23490395.953 7  96189256.81749
        40.200    23490395.12149  23490391.395 3  92181345.845 3        32.200
  20347383.273 9 106926228.821 9        52.000    20347390.199 9  83319187.62849
        55.800    20347389.02749  20347385.797 7  79847504.895 7        42.300
  25166601.391 5 132251371.804 5        37.800    25166605.223 5 103053039.11146
        20.100    25166604.23046
  23921041.477 6 125705938.090 6        39.200    23921046.383 6  97952694.91446
        21.700    23921045.60946  23921047.418 2  93871337.50812        31.700
  23938067.797 5 125795392.913 5        37.500                    98022391.47546
        22.900    23938069.15646
  21589206.797 9 113452053.509 9        49.600    21589213.012 9  88404236.45149
        54.600    21589212.98449  21589208.500 6  84720648.036 6        39.700
  20909692.445 9 109881231.552 9        50.300    20909699.281 9  85621751.03549
        55.200    20909698.34849  20909695.668 7  82054107.022 7        42.000
 21 12 14  1 43 30.0000000  0 10G16G01G21G32G08G14G23G22G10G27
  24480055.227 5 128643575.283 5        36.400                   100241733.80346
        20.100    24480058.23046
  23012383.758 6 120930940.421 6        39.200    23012391.777 7  94231920.70847
        27.100    23012391.21147  23012387.219 3  90305572.023 3        33.600
  21552598.977 9 113259699.007 9        49.100                    88254331.78349
        40.100    21552601.67649
  23475624.352 7 123365236.954 7        43.900    23475631.715 7  96128799.58249
        39.900    23475630.52349  23475627.684 3  92123407.681 3        32.100
  20345755.305 9 106917674.722 9        51.800    20345762.434 9  83312522.08849
        56.000    20345761.23449  20345757.840 7  79841117.079 7        42.800
  25149903.289 5 132163619.500 5        37.900    25149907.332 6 102984660.73346
        20.400    25149906.44546
  23940269.742 6 125806980.552 6        40.300    23940274.273 6  98031429.27646
        24.500    23940273.29746  23940274.836 3  93946791.233 3        32.400
  23917816.602 5 125688974.452 5        37.900                    97939468.01046
        22.500    23917818.60246
  21599693.508 9 113507161.917 9        50.300    21599699.641 9  88447178.06849
        54.300    21599699.39149  21599695.125 6  84761800.408 6        40.000
  20920618.695 9 109938648.345 9        51.600    20920625.266 9  85666491.37549
        55.000    20920624.60949  20920621.438 7  82096983.179 7        41.400
 21 12 14  1 44  0.0000000  0 10G16G01G21G32G08G14G23G22G10G27
  24501612.453 5 128756854.021 5        37.300                   100330002.91746
        20.600    24501614.77346
  22995041.820 6 120839805.562 6        39.900    22995049.094 7  94160906.58447
        26.900    22995048.97347  22995045.297 4  90237516.799 4        34.200
  21544525.680 9 113217273.907 9        49.800                    88221273.27449
        39.900    21544528.34449
  23460916.180 7 123287942.339 7        43.700    23460922.918 7  96068570.01049
        39.900    23460921.58649  23460919.301 3  92065687.681 3        32.700
  20344219.281 9 106909602.814 9        52.500    20344226.266 9  83306232.28849
        56.800    20344225.13749  20344222.113 7  79835089.341 7        43.100
  25133264.648 5 132076188.887 5        35.900    25133269.184 6 102916532.93045
        19.600    25133267.79345
  23959531.117 6 125908199.652 6        40.900    23959535.285 6  98110301.31946
        24.500    23959534.76246  23959536.086 2  94022376.959 2        31.800
  23897597.984 5 125582726.142 5        37.600                    97856677.14046
        22.800    23897599.53546
  21610262.188 9 113562700.759 9        50.400    21610268.441 9  88490455.09549
        54.400    21610268.07049  21610263.988 6  84803274.232 6        39.800
  20931625.680 9 109996490.469 9        51.200    20931632.293 9  85711563.14549
        54.900    20931631.71949  20931628.535 7  82140176.961 7        41.200
 21 12 14  1 44 30.0000000  0 10G16G01G21G32G08G14G23G22G10G27
  24523175.016 6 128870169.244 6        38.400                   100418300.51546
        21.300    24523177.94146
  22977729.898 6 120748834.784 6        39.900    22977737.738 7  94090020.29647
        28.500    22977737.80547  22977733.594 4  90169584.155 4        34.000
  21536496.281 9 113175079.185 9        49.900                    88188394.28149
        40.200    21536499.00849
  23446263.609 7 123210943.190 7        44.400    23446270.477 7  96008570.67849
        41.100    23446269.05549  23446266.520 3  92008188.333 3        32.100
  20342775.203 9 106902014.547 9        51.600    20342782.273 9  83300319.35049
        55.200    20342781.25849  20342777.953 7  79829422.781 7        42.400
  25116688.297 5 131989082.999 5        36.200    25116692.730 5 102848658.15345
        17.400    25116693.27745
  23978825.438 6 126009593.446 6        40.800    23978830.059 7  98189309.48547
        25.800    23978829.65647  23978831.160 3  94098093.040 3        32.100
  23877412.805 5 125476650.164 5        37.500                    97774020.53146
        22.000    23877414.57046
  21620912.336 9 113618668.373 9        49.800    21620918.816 9  88534066.21849
        54.500    21620918.44149  21620914.316 6  84845068.231 6        39.500
  20942713.258 9 110054757.508 9        51.200    20942720.051 9  85756966.02249
        55.000    20942719.66049  20942716.148 7  82183688.056 7        41.900
 21 12 14  1 45  0.0000000  0 10G16G01G21G32G08G14G23G22G10G27
  24544743.813 5 128983518.153 5        35.700                   100506624.37246
        20.900    24544748.10546
  22960449.703 6 120658028.810 6        39.800    22960458.496 7  94019262.44247
        28.900    22960458.35947  22960454.031 4  90101774.562 4        34.100
  21528510.492 9 113133114.559 9        49.500                    88155694.58949
        40.100    21528513.49249
  23431667.750 7 123134242.379 7        44.100    23431674.953 7  95948803.81949
        41.500    23431674.11749  23431670.629 3  91950911.687 3        32.400
  20341423.570 9 106894910.887 9        51.700    20341430.594 9  83294784.02449
        55.600    20341429.50049  20341426.258 7  79824118.107 7        43.000
  25100176.492 6 131902304.291 6        38.100    25100180.098 6 102781038.39946
        20.100    25100178.89146
  23998152.336 6 126111159.563 6        40.200    23998157.527 6  98268451.88546
        22.600    23998157.00446  23998157.805 2  94173937.910 2        31.800
  23857260.031 5 125370748.481 5        35.900                    97691499.76146
        22.600    23857262.31346
  21631644.055 9 113675062.785 9        49.400    21631650.094 9  88578009.91849
        54.100    21631649.87149  21631645.871 6  84887180.938 6        39.900
  20953882.180 9 110113448.609 9        49.900    20953888.559 9  85802699.32749
        55.000    20953888.35249  20953885.340 7  82227515.804 7        42.000
 21 12 14  1 45 30.0000000  0 10G16G01G21G32G08G14G23G22G10G27
  24566320.656 6 129096898.351 6        38.600                   100594972.50246
        21.700    24566323.77746
  22943202.055 6 120567388.059 6        40.200    22943209.828 7  93948633.32447
        28.700    22943209.42647  22943206.074 4  90034088.272 4        34.700
  21520568.695 9 113091379.360 9        49.900                    88123173.66349
        40.300    21520571.57849
  23417128.750 7 123057842.322 7        43.900    23417136.867 7  95889271.32349
        40.900    23417135.53149  23417132.637 3  91893859.744 3        32.700
  20340163.984 9 106888291.885 9        52.400    20340170.895 9  83289626.36249
        56.200    20340169.96149  20340166.746 7  79819175.343 7        43.200
  25083724.070 4 131815855.166 4        34.400    25083728.723 5 102713675.42345
        17.800    25083729.16445
  24017511.914 6 126212895.148 6        39.400    24017516.867 6  98347726.36746
        22.900    24017516.33246  24017517.648 2  94249909.28812        31.200
  23837140.836 5 125265022.466 5        37.200                    97609115.87746
        22.600    23837143.06646
  21642456.352 9 113731881.515 9        50.000    21642462.219 9  88622284.25249
        54.200    21642462.23449  21642458.258 6  84929610.511 6        39.900
  20965131.258 9 110172562.454 9        51.800    20965137.563 9  85848762.04749
        55.000    20965137.25449  20965134.125 7  82271659.235 7        41.100
 21 12 14  1 46  0.0000000  0 10G16G01G21G32G08G14G23G22G10G27
  24587901.570 5 129210307.216 5        37.900                   100683343.07145
        19.600    24587903.91445
  22925985.508 6 120476913.521 6        40.500    22925993.121 7  93878133.71347
        28.300    22925992.82847  22925989.395 5  89966526.211 5        35.000
  21512670.367 9 113049873.821 9        49.500                    88090831.69149
        40.100    21512673.49649
  23402648.969 7 122981746.063 7        43.900    23402655.707 7  95829975.55749
        40.800    23402654.55149  23402652.188 3  91837034.62413        32.700
  20338996.852 9 106882158.507 9        51.700    20339003.898 9  83284847.10249
        55.900    20339002.73049  20338999.586 7  79814595.218 7        42.500
  25067338.133 5 131729738.306 5        37.000    25067342.051 6 102646571.30146
        20.400    25067341.75446
  24036903.805 6 126314798.111 6        38.800    24036908.512 6  98427131.26946
        22.500    24036907.69946  24036909.410 1  94326005.661 1        30.800
  23817055.563 5 125159473.895 5        37.200                    97526870.21146
        22.600    23817057.56346
  21653349.031 9 113789122.757 9        49.900    21653355.059 9  88666887.80849
        54.400    21653354.89549  21653350.832 6  84972355.605 6        39.600
  20976460.633 9 110232098.382 9        51.800    20976467.004 9  85895153.66449
        55.200    20976466.55149  20976463.551 7  82316117.848 7        42.000
 21 12 14  1 46 30.0000000  0 10G16G01G21G32G08G14G23G22G10G27
  24609485.516 5 129323741.965 5        36.300                   100771733.77446
        20.400    24609490.28546
  22908800.227 7 120386606.106 7        41.000    22908808.027 7  93807764.33747
        29.000    22908807.69547  22908804.426 4  89899088.887 4        34.900
  21504815.914 9 113008598.615 9        50.300                    88058669.20349
        40.700    21504819.22749
  23388226.094 7 122905956.654 7        43.900    23388233.336 7  95770918.87249
        41.100    23388232.72749  23388229.680 3  91780438.637 3        32.400
  20337922.188 9 106876512.206 9        51.900    20337929.316 9  83280447.37949
        56.500    20337928.41449  20337925.035 7  79810378.804 7        42.700
  25051014.953 6 131643956.226 6        38.500    25051016.805 5 102579728.13545
        18.600    25051017.32845
  24056327.203 6 126416866.201 6        38.100    24056331.203 6  98506664.85446
        21.700    24056330.69546  24056331.930 1  94402225.29311        29.900
  23797004.844 5 125054105.094 5        36.800                    97444764.66746
        22.200    23797006.97346
  21664321.563 9 113846784.598 9        49.300    21664327.871 9  88711819.11349
        54.100    21664327.37549  21664323.070 6  85015414.766 6        39.700
  20987869.977 9 110292055.590 9        50.000    20987876.551 9  85941873.55249
        54.900    20987875.85249  20987872.746 7  82360891.073 7        41.400
 21 12 14  1 47  0.0000000  0 10G16G01G21G32G08G14G23G22G10G27
  24631077.094 5 129437200.122 5        37.500                   100860142.72946
        20.400    24631081.46546
  22891646.680 6 120296466.444 6        40.500    22891654.914 7  93737525.66447
        27.100    22891654.77047  22891650.699 4  89831776.853 4        34.000
  21497005.797 9 112967553.215 9        49.900                    88026685.78649
        40.500    21497008.04749
  23373863.031 8 122830476.743 8        45.000    23373869.871 7  95712103.35649
        41.700    23373869.10249  23373866.133 3  91724073.822 3        32.800
  20336940.828 9 106871353.320 9        52.000    20336947.926 9  83276427.46849
        55.800    20336946.68849  20336943.176 7  79806526.382 7        42.700
  25034753.703 4 131558511.577 4        34.200    25034758.723 6 102513147.90745
        18.600    25034758.75045
  24075780.297 6 126519096.898 6        38.700    24075784.980 6  98586325.12746
        21.100    24075784.48846  24075785.465 1  94478566.40511        29.000
  23776988.492 5 124948917.474 5        37.000                    97362800.29146
        22.200    23776990.15646
  21675373.984 9 113904864.809 9        50.000    21675379.945 9  88757076.41849
        54.100    21675379.85549  21675375.684 6  85058786.326 6        39.600
  20999359.547 9 110352433.077 9        51.400    20999365.988 9  85988920.94149
        55.200    20999365.20749  20999362.328 7  82405978.149 7        41.100
 21 12 14  1 47 30.0000000  0 10G16G01G21G32G08G14G23G22G10G27
  24652671.648 5 129550678.889 5        35.600                   100948567.71145
        17.800    24652674.51245
  22874526.383 7 120206495.486 7        41.100    22874533.859 7  93667418.47647
        28.500    22874533.95747  22874529.863 4  89764590.757 4        34.500
  21489238.695 9 112926737.855 9        49.500                    87994881.60049
        40.500    21489241.06349
  23359559.656 7 122755309.376 7        44.700    23359566.484 7  95653531.40049
        41.600    23359564.87549  23359562.453 3  91667942.310 3        33.100
  20336052.102 9 106866683.251 9        51.900    20336058.984 9  83272788.44849
        55.800    20336058.02049  20336054.637 7  79803038.991 7        42.500
  25018558.398 4 131473407.064 4        34.300    25018562.719 5 102446832.63145
        15.600    25018562.52045
  24095264.883 5 126621488.031 5        37.600    24095269.633 6  98666110.43646
        21.100    24095269.12946  24095270.637 1  94555027.23311        28.400
  23757006.523 5 124843913.154 5        37.900                    97280978.72046
        22.300    23757008.64846
  21686505.453 9 113963361.541 9        49.900    21686511.555 9  88802658.29049
        54.100    21686511.57049  21686507.086 6  85102468.949 6        40.100
  21010928.703 9 110413230.038 9        52.000    21010935.234 9  86036295.17949
        54.900    21010934.64149  21010931.359 7  82451378.470 7        41.200
